[
  {
    "outlet_sap_id": 3103,
    "name": "UNIT BISNIS BANDUNG",
    "department_id": 3103,
    "store_type": "",
    "operational_date": "1010-01-01",
    "address": "Jl. Cihampelas No. 7",
    "postcode_id": 29310,
    "latitude": 0,
    "longitude": 0,
    "phone": "02284281458"
  },
  {
    "outlet_sap_id": 3108,
    "name": "UNIT BISNIS BATAM",
    "department_id": 3108,
    "store_type": "",
    "operational_date": "1010-01-01",
    "address": "-",
    "postcode_id": 24583,
    "latitude": 0,
    "longitude": 0,
    "phone": 0
  },
  {
    "outlet_sap_id": 3109,
    "name": "UNIT BISNIS TANJUNG PINANG",
    "department_id": 3109,
    "store_type": "",
    "operational_date": "1010-01-01",
    "address": "JL. BINTAN NO. 656 - 658",
    "postcode_id": 24860,
    "latitude": 0.929425,
    "longitude": 104.44148,
    "phone": "077121091"
  },
  {
    "outlet_sap_id": 3113,
    "name": "UNIT BISNIS DEPOK",
    "department_id": 3113,
    "store_type": "",
    "operational_date": "1010-01-01",
    "address": "JL. Nusnatara Raya No. 33 Depok",
    "postcode_id": 26980,
    "latitude": 0,
    "longitude": 0,
    "phone": "02177802101"
  },
  {
    "outlet_sap_id": 3118,
    "name": "UNIT BISNIS JAYA II",
    "department_id": 3118,
    "store_type": "",
    "operational_date": "1010-01-01",
    "address": "-",
    "postcode_id": 25064,
    "latitude": 0,
    "longitude": 0,
    "phone": 0
  },
  {
    "outlet_sap_id": 3119,
    "name": "UNIT BISNIS JAYAPURA",
    "department_id": 3119,
    "store_type": "",
    "operational_date": "1010-01-01",
    "address": "jl kesehtan komp rsud dok 2 jayapura",
    "postcode_id": 76053,
    "latitude": 0,
    "longitude": 0,
    "phone": 0
  },
  {
    "outlet_sap_id": 3120,
    "name": "UNIT BISNIS JEMBER",
    "department_id": 3120,
    "store_type": "",
    "operational_date": "1010-01-01",
    "address": "Jln. Gajah Mada 171 jember",
    "postcode_id": 42473,
    "latitude": 0,
    "longitude": 0,
    "phone": "0331485424"
  },
  {
    "outlet_sap_id": 3124,
    "name": "UNIT BISNIS MAKASSAR",
    "department_id": 3124,
    "store_type": "",
    "operational_date": "1010-01-01",
    "address": "-",
    "postcode_id": 67264,
    "latitude": 0,
    "longitude": 0,
    "phone": 0
  },
  {
    "outlet_sap_id": 3125,
    "name": "UNIT BISNIS MALANG",
    "department_id": 3125,
    "store_type": "",
    "operational_date": "1010-01-01",
    "address": "malang",
    "postcode_id": 43670,
    "latitude": 0,
    "longitude": 0,
    "phone": 0
  },
  {
    "outlet_sap_id": 3129,
    "name": "UNIT BISNIS MATARAM",
    "department_id": 3129,
    "store_type": "",
    "operational_date": "1010-01-01",
    "address": "Jl. Sriwijaya No.295",
    "postcode_id": 51624,
    "latitude": 0,
    "longitude": 0,
    "phone": 0
  },
  {
    "outlet_sap_id": 3135,
    "name": "UNIT BISNIS PALU",
    "department_id": 3135,
    "store_type": "",
    "operational_date": "1010-01-01",
    "address": "-",
    "postcode_id": 64801,
    "latitude": 0,
    "longitude": 0,
    "phone": 0
  },
  {
    "outlet_sap_id": 3136,
    "name": "UNIT BISNIS PEKANBARU",
    "department_id": 3136,
    "store_type": "",
    "operational_date": "1010-01-01",
    "address": "JL. JENS SUDIRMAN NO.175",
    "postcode_id": 14974,
    "latitude": 0,
    "longitude": 0,
    "phone": 1500255
  },
  {
    "outlet_sap_id": 3137,
    "name": "UNIT BISNIS PONTIANAK",
    "department_id": 3137,
    "store_type": "",
    "operational_date": "1010-01-01",
    "address": "JL. TANJUNG PURA NO. 419",
    "postcode_id": 55250,
    "latitude": -0.036767,
    "longitude": 109.346656,
    "phone": 0
  },
  {
    "outlet_sap_id": 3138,
    "name": "UNIT BISNIS RS JAKARTA",
    "department_id": 3138,
    "store_type": "",
    "operational_date": "1010-01-01",
    "address": "-",
    "postcode_id": 25209,
    "latitude": 0.123456767,
    "longitude": 0.01234567,
    "phone": 0
  },
  {
    "outlet_sap_id": 3139,
    "name": "UNIT BISNIS SAMARINDA",
    "department_id": 3139,
    "store_type": "",
    "operational_date": "1010-01-01",
    "address": "Jl. Gerilya Ruko 1B/1C Rt.10, Kota Samarinda",
    "postcode_id": 18680,
    "latitude": 0,
    "longitude": 0,
    "phone": 0
  },
  {
    "outlet_sap_id": 3140,
    "name": "UNIT BISNIS PEKALONGAN",
    "department_id": 3140,
    "store_type": "",
    "operational_date": "1010-01-01",
    "address": "Jl.Imam Bonjol No.32",
    "postcode_id": 35836,
    "latitude": 0,
    "longitude": 0,
    "phone": "02854498966"
  },
  {
    "outlet_sap_id": 3144,
    "name": "UNIT BISNIS GRESIK",
    "department_id": 3144,
    "store_type": "",
    "operational_date": "1010-01-01",
    "address": "Jl. Dr. Wahidin Sudirohusodo 788",
    "postcode_id": 43155,
    "latitude": -7.167258,
    "longitude": 112.600076,
    "phone": "0313986989"
  },
  {
    "outlet_sap_id": "AA07",
    "name": "KF.0397 Sigli",
    "department_id": 3101,
    "store_type": "BASIC_HEALTH",
    "operational_date": "2010-01-01",
    "address": "Jl. Perdagangan No. 1",
    "postcode_id": 2388,
    "latitude": 5.3845625,
    "longitude": 95.9603125,
    "phone": "081110678397"
  },
  {
    "outlet_sap_id": "AA0712",
    "name": "PPO KF 397 Tijue",
    "department_id": 3101,
    "store_type": "NEW",
    "operational_date": "2020-01-01",
    "address": "Jl Banda Aceh-Medan , km 116 , Gp. Dayah Teungoh Tijue",
    "postcode_id": 10,
    "latitude": 5.360944,
    "longitude": 95.959905,
    "phone": "081397609857"
  },
  {
    "outlet_sap_id": "AA09",
    "name": "KF.0403 Bireun",
    "department_id": 3101,
    "store_type": "MEDICAL",
    "operational_date": "2011-01-01",
    "address": "Jl. T. Hamzah Bendahara No. 19",
    "postcode_id": 731,
    "latitude": 5.204031,
    "longitude": 96.6995458,
    "phone": "082274479004"
  },
  {
    "outlet_sap_id": "AA37",
    "name": "KF Prada",
    "department_id": 3101,
    "store_type": "BASIC_HEALTH",
    "operational_date": "2019-03-12",
    "address": "Jl. Teuku Nyak Arif, Syiah Kuala, Banda Aceh",
    "postcode_id": 2552,
    "latitude": 5.575504,
    "longitude": 95.347002,
    "phone": "085372809997"
  },
  {
    "outlet_sap_id": "AA41",
    "name": "KF Merdeka Tapaktuan",
    "department_id": 3101,
    "store_type": "BASIC_HEALTH",
    "operational_date": "1010-01-01",
    "address": "Jl. Merdeka No. 69-70",
    "postcode_id": 17,
    "latitude": 3.255452,
    "longitude": 97.180347,
    "phone": "082164990692"
  },
  {
    "outlet_sap_id": "AA42",
    "name": "KF Sultan Iskandar Muda",
    "department_id": 3101,
    "store_type": "BASIC_HEALTH",
    "operational_date": "1010-01-01",
    "address": "Jl. Nasional Meulaboh - Tapak Tuan",
    "postcode_id": 6773,
    "latitude": 4.11854,
    "longitude": 96.311115,
    "phone": "082155844208"
  },
  {
    "outlet_sap_id": "AA4211",
    "name": "PPO RS SIM Nagan Raya",
    "department_id": 3101,
    "store_type": "MEDICAL",
    "operational_date": "1010-01-01",
    "address": "Jl. Meulaboh - Tapaktuan RS Sultan",
    "postcode_id": 6244,
    "latitude": 4.118741,
    "longitude": 96.311673,
    "phone": "085275290852"
  },
  {
    "outlet_sap_id": "AA43",
    "name": "KF Punge",
    "department_id": 3101,
    "store_type": "NONE",
    "operational_date": "1010-01-01",
    "address": "Jl. Sultan Iskandar Muda, Desa Pung",
    "postcode_id": 3067,
    "latitude": 5.54995,
    "longitude": 9.530912,
    "phone": "021"
  },
  {
    "outlet_sap_id": "AA44",
    "name": "KF Alfayat",
    "department_id": 3101,
    "store_type": "MEDICAL",
    "operational_date": "1010-01-01",
    "address": "Jl. Sultan Malikul Saleh No.26, Neusu Aceh, Kec. Baiturrahman, Kota Banda Aceh",
    "postcode_id": 389,
    "latitude": 5.5364406,
    "longitude": 95.310749,
    "phone": "00000"
  },
  {
    "outlet_sap_id": "AA45",
    "name": "KF Pel RSUD Teungku Peukan Blangpidie",
    "department_id": 3101,
    "store_type": "MEDICAL",
    "operational_date": "1010-01-01",
    "address": "jln nasional padang, meurante susoh, Kecamaten Blang Pidie, Kabupaten Aceh Barat Daya, Aceh",
    "postcode_id": 181,
    "latitude": 3.7391784,
    "longitude": 96.7967337,
    "phone": "080000"
  },
  {
    "outlet_sap_id": "AB40",
    "name": "KF Bulungan Balikpapan",
    "department_id": 3102,
    "store_type": "BASIC_HEALTH",
    "operational_date": "2019-07-12",
    "address": "Jl. Kol. H. Soetadji RT 16 Tanjung Selor Ilir",
    "postcode_id": 62249,
    "latitude": 2.845304,
    "longitude": 117.36889,
    "phone": "081365696550"
  },
  {
    "outlet_sap_id": "AB42",
    "name": "Klinik Mandiri KF Ria Kencana PKBI",
    "department_id": 3102,
    "store_type": "",
    "operational_date": "1010-01-01",
    "address": "Jl. Letnan Jend Suprapto No. 1, Kel. Gn. Kelua, Kec. Samarinda Ulu, Samarinda, Kalimantan Timur 75123",
    "postcode_id": 61419,
    "latitude": 0,
    "longitude": 0,
    "phone": "021"
  },
  {
    "outlet_sap_id": "AB45",
    "name": "KF A. Yani II",
    "department_id": 3102,
    "store_type": "BASIC_HEALTH",
    "operational_date": "2023-02-01",
    "address": "JL. Jend. A. Yani No. 20, Kel. Gn. Sari Ilir Kec. Balikpapan Tengah, Kota Balikpapan",
    "postcode_id": 60984,
    "latitude": -1.266137,
    "longitude": 116.837032,
    "phone": "081255069304"
  },
  {
    "outlet_sap_id": "AB46",
    "name": "KF MT. Haryono II",
    "department_id": 3102,
    "store_type": "BASIC_HEALTH",
    "operational_date": "1010-01-01",
    "address": "Jl. MT. Haryono RT.41 Damai Baru",
    "postcode_id": 60928,
    "latitude": -1.254583321,
    "longitude": 116.868731,
    "phone": "081345779117"
  },
  {
    "outlet_sap_id": "AC02",
    "name": "KF.0011",
    "department_id": 3103,
    "store_type": "BASIC_HEALTH",
    "operational_date": "2003-01-01",
    "address": "Jl. Supratman No.72",
    "postcode_id": 26163,
    "latitude": -6.904162,
    "longitude": 107.628706,
    "phone": "08112157640"
  },
  {
    "outlet_sap_id": "AC10",
    "name": "KF.0240",
    "department_id": 3103,
    "store_type": "BASIC_HEALTH",
    "operational_date": "2003-01-01",
    "address": "Jl. Rancabolang No.69",
    "postcode_id": 28471,
    "latitude": -6.941234,
    "longitude": 107.663586,
    "phone": "08112157648"
  },
  {
    "outlet_sap_id": "AC12",
    "name": "KF.0319",
    "department_id": 3103,
    "store_type": "SUPER_STORE",
    "operational_date": "2008-01-01",
    "address": "Jl. Raya Venus No.27, Metro Marga Rahayu",
    "postcode_id": 28471,
    "latitude": -6.941502,
    "longitude": 107.667472,
    "phone": "08112157650"
  },
  {
    "outlet_sap_id": "AC35",
    "name": "Apotek KF Geger Kalong",
    "department_id": 3103,
    "store_type": "SUPER_STORE",
    "operational_date": "2018-03-18",
    "address": "Jl. Gegerkalong No.33",
    "postcode_id": 27094,
    "latitude": -6.870137,
    "longitude": 107.591391,
    "phone": "08112157684"
  },
  {
    "outlet_sap_id": "AC49",
    "name": "KF MARGA CINTA",
    "department_id": 3103,
    "store_type": "BASIC_HEALTH",
    "operational_date": "2018-09-01",
    "address": "Jl. Marga Cinta No. 58",
    "postcode_id": 26215,
    "latitude": -6.954825,
    "longitude": 107.643447,
    "phone": "08112157687"
  },
  {
    "outlet_sap_id": "AC61",
    "name": "KF Holis",
    "department_id": 3103,
    "store_type": "BASIC_HEALTH",
    "operational_date": "1010-01-01",
    "address": "Jl. Holis No.247, Babakan",
    "postcode_id": 30191,
    "latitude": -6.93666,
    "longitude": 107.57037,
    "phone": "085175004038"
  },
  {
    "outlet_sap_id": "AC62",
    "name": "KF Antapani 2",
    "department_id": 3103,
    "store_type": "BASIC_HEALTH",
    "operational_date": "1010-01-01",
    "address": "Jl.purwakarta no 162 RT/RW 01/04 kelurahan antapani kidul antapani",
    "postcode_id": 1,
    "latitude": -6.917406,
    "longitude": 107.657942,
    "phone": "081110678362"
  },
  {
    "outlet_sap_id": "AC63",
    "name": "KF Parahyangan",
    "department_id": 3103,
    "store_type": "BASIC_HEALTH",
    "operational_date": "1010-01-01",
    "address": "Ruko Pancawarna no 27 Kota Baru Parahyangan, Kelurahan Cipeundeuy",
    "postcode_id": 25819,
    "latitude": -6.86809,
    "longitude": 107.4675852,
    "phone": "08112312072"
  },
  {
    "outlet_sap_id": "AE10",
    "name": "KF Moch Hatta",
    "department_id": 3105,
    "store_type": "MEDICAL",
    "operational_date": "2016-09-01",
    "address": "Jl. Moch Hatta No 147 Kota Tasikmal",
    "postcode_id": 30359,
    "latitude": -7.319605237,
    "longitude": 108.227397,
    "phone": "081110678143"
  },
  {
    "outlet_sap_id": "AE18",
    "name": "KF Mangkubumi",
    "department_id": 3105,
    "store_type": "MEDICAL",
    "operational_date": "2023-10-09",
    "address": "Jl. Mayor Tobing No. 136 Rt.001/04",
    "postcode_id": 25954,
    "latitude": -7.343415236,
    "longitude": 10.81944588,
    "phone": "08112279797"
  },
  {
    "outlet_sap_id": "AE19",
    "name": "KF Ciledug Garut",
    "department_id": 3105,
    "store_type": "MEDICAL",
    "operational_date": "1010-01-01",
    "address": "Jl. Raya Ciledug No.195, Kota Kulon, Kec. Garut Kota, Kabupaten Garut, Jawa Barat",
    "postcode_id": 28116,
    "latitude": -7.223426,
    "longitude": 107.9039993,
    "phone": "0800000"
  },
  {
    "outlet_sap_id": "AG08",
    "name": "KF 383 S.Parman-2",
    "department_id": 3107,
    "store_type": "NONE",
    "operational_date": "2010-01-01",
    "address": "Jalan S.Parman No.161 RT 01/001",
    "postcode_id": 60686,
    "latitude": -3.30455,
    "longitude": 114.58785,
    "phone": "08115137817"
  },
  {
    "outlet_sap_id": "AG09",
    "name": "KF.0433 A Yani 59",
    "department_id": 3107,
    "store_type": "MEDICAL",
    "operational_date": "2013-05-01",
    "address": "Jl. A.Yani, Pemurus Luar",
    "postcode_id": 59560,
    "latitude": -3.359522,
    "longitude": 114.633507,
    "phone": "08115137818"
  },
  {
    "outlet_sap_id": "AG10",
    "name": "KF 444 Gatsu",
    "department_id": 3107,
    "store_type": "BASIC_HEALTH",
    "operational_date": "2013-06-01",
    "address": "Jl. Gatot Subroto",
    "postcode_id": 59491,
    "latitude": -3.3263055,
    "longitude": 114.6172311,
    "phone": "08115137819"
  },
  {
    "outlet_sap_id": "AG17",
    "name": "KF Belitung Darat",
    "department_id": 3107,
    "store_type": "",
    "operational_date": "2017-05-01",
    "address": "Jl. Belitumg Darat No.38",
    "postcode_id": 60686,
    "latitude": -3.3052928,
    "longitude": 114.585682,
    "phone": "05114321526"
  },
  {
    "outlet_sap_id": "AG22",
    "name": "ApotekKF.0517GuntungPayung",
    "department_id": 3107,
    "store_type": "MEDICAL",
    "operational_date": "2014-02-01",
    "address": "HQ2X+3PM, Jl. Ahmad Yani Jl. A. Yani",
    "postcode_id": 59258,
    "latitude": -3.449778,
    "longitude": 114.799343,
    "phone": "08115137828"
  },
  {
    "outlet_sap_id": "AG31",
    "name": "APT KIMIA FARMA SULTAN ADAM 2",
    "department_id": 3107,
    "store_type": "BASIC_HEALTH",
    "operational_date": "2018-12-01",
    "address": "Jl. Sultan Adam No.10",
    "postcode_id": 60335,
    "latitude": -3.29237,
    "longitude": 114.59923,
    "phone": "08115137835"
  },
  {
    "outlet_sap_id": "AG36",
    "name": "KF Sungai Danau",
    "department_id": 3107,
    "store_type": "BASIC_HEALTH",
    "operational_date": "1010-01-01",
    "address": "Jl. Jend. Ahmad Yani Sungai Danau",
    "postcode_id": 58795,
    "latitude": -3.77778,
    "longitude": 115.40309,
    "phone": "082155730970"
  },
  {
    "outlet_sap_id": "AG37",
    "name": "KF Plajau",
    "department_id": 3107,
    "store_type": "MEDICAL",
    "operational_date": "1010-01-01",
    "address": "Jl. Transmigrasi Plajau, Baroqah, Kec. Simpang Empat, Kabupaten Tanah Bumbu, Kalimantan Selatan",
    "postcode_id": 58795,
    "latitude": -3.4161,
    "longitude": 115.9886269,
    "phone": "000000"
  },
  {
    "outlet_sap_id": "AH21",
    "name": "KF Dapur 12-Batam",
    "department_id": 3108,
    "store_type": "MEDICAL",
    "operational_date": "2017-07-01",
    "address": "JL.Ruko Buana Niaga No.5-6 Sagulung Batam",
    "postcode_id": 24893,
    "latitude": 1.034166,
    "longitude": 103.959057,
    "phone": 6282170649140
  },
  {
    "outlet_sap_id": "AH3011",
    "name": "PPO KF KEK Nongsa",
    "department_id": 3108,
    "store_type": "NONE",
    "operational_date": "1010-01-01",
    "address": "Jl. Hang Lekiu KM 2 Nongsa, Sambau,",
    "postcode_id": 24826,
    "latitude": 1.19184,
    "longitude": 104.09188,
    "phone": "021"
  },
  {
    "outlet_sap_id": "AH40",
    "name": "KF Newton",
    "department_id": 3108,
    "store_type": "BASIC_HEALTH",
    "operational_date": "1010-01-01",
    "address": "Komplek Nagoya Paradise Center",
    "postcode_id": 24582,
    "latitude": 1.1423229,
    "longitude": 104.005476,
    "phone": "082268481281"
  },
  {
    "outlet_sap_id": "AI01",
    "name": "KF.0031 TPI",
    "department_id": 3109,
    "store_type": "SUPER_STORE",
    "operational_date": "2003-01-01",
    "address": "Jl. Bintan No.656 - 658",
    "postcode_id": 24922,
    "latitude": 0.929426,
    "longitude": 104.441483,
    "phone": "08117005036"
  },
  {
    "outlet_sap_id": "AI07",
    "name": "KF.0297 Bintan",
    "department_id": 3109,
    "store_type": "HEALTH_AND_CARE",
    "operational_date": "2003-01-01",
    "address": "Jl. D.I. Panjaitan Km. 9 Komp. Bintan Center",
    "postcode_id": 24597,
    "latitude": 0.91697,
    "longitude": 104.509754,
    "phone": "08117005043"
  },
  {
    "outlet_sap_id": "AI10",
    "name": "KF.0649 Batubatas",
    "department_id": 3109,
    "store_type": "BASIC_HEALTH",
    "operational_date": "2015-05-01",
    "address": "Jl. Raja Haji Fisabilillah Km. 8 Atas",
    "postcode_id": 24597,
    "latitude": 0.910967,
    "longitude": 104.493336,
    "phone": "08117005042"
  },
  {
    "outlet_sap_id": "AI22",
    "name": "KF Natuna",
    "department_id": 3109,
    "store_type": "NONE",
    "operational_date": "1010-01-01",
    "address": "JL. DATUK KAYA WAN MOH. BENTENG - RANAI",
    "postcode_id": 24584,
    "latitude": 3.940494,
    "longitude": 108.386575,
    "phone": "021"
  },
  {
    "outlet_sap_id": "AJ0111",
    "name": "KF. 284 RESEP SUZ",
    "department_id": 3110,
    "store_type": "MEDICAL",
    "operational_date": "2004-01-01",
    "address": "-",
    "postcode_id": 28497,
    "latitude": 0,
    "longitude": 0,
    "phone": "021"
  },
  {
    "outlet_sap_id": "AJ0311",
    "name": "KF. 340 RESEP UNI",
    "department_id": 3110,
    "store_type": "MEDICAL",
    "operational_date": "2009-01-01",
    "address": "-",
    "postcode_id": 30926,
    "latitude": 0,
    "longitude": 0,
    "phone": 0
  },
  {
    "outlet_sap_id": "AJ27",
    "name": "KF Han Kam",
    "department_id": 3110,
    "store_type": "",
    "operational_date": "2016-11-16",
    "address": "Jln. Raya Hankam No. 2 Jatisampurna",
    "postcode_id": 27415,
    "latitude": 0,
    "longitude": 0,
    "phone": "02128671181"
  },
  {
    "outlet_sap_id": "AJ3011",
    "name": "PPO KF Suzuki Cikarang",
    "department_id": 3110,
    "store_type": "MEDICAL",
    "operational_date": "2019-01-01",
    "address": "PT. Suzuki Indomobil Motor Kawasan",
    "postcode_id": 25901,
    "latitude": 0,
    "longitude": 0,
    "phone": 0
  },
  {
    "outlet_sap_id": "AJ3111",
    "name": "PPO KF Suzuki Pulogadung",
    "department_id": 3110,
    "store_type": "MEDICAL",
    "operational_date": "2019-01-01",
    "address": "Jl. Raya Bekasi No.Km. 19, RW.2, Rw",
    "postcode_id": 30926,
    "latitude": 0,
    "longitude": 0,
    "phone": 0
  },
  {
    "outlet_sap_id": "AJ32",
    "name": "KF Jati Rahayu",
    "department_id": 3110,
    "store_type": "SUPER_STORE",
    "operational_date": "2017-06-01",
    "address": "Jl.Jati Rahayu Bekasi",
    "postcode_id": 27392,
    "latitude": -6.292913,
    "longitude": 106.918814,
    "phone": "081110678472"
  },
  {
    "outlet_sap_id": "AJ39",
    "name": "KF Kranji 1030",
    "department_id": 3110,
    "store_type": "NONE",
    "operational_date": "2018-06-01",
    "address": "Jl. Pemuda Kranji No.33, RT.005/RW.013",
    "postcode_id": 28109,
    "latitude": -6.227181455,
    "longitude": 106.9794844,
    "phone": "02189494553"
  },
  {
    "outlet_sap_id": "AJ49",
    "name": "KF JGC Bekasi",
    "department_id": 3110,
    "store_type": "BASIC_HEALTH",
    "operational_date": "2023-05-26",
    "address": "Jakarta Garden City Ruko Boulevard No 26, Kel. Cakung Timur",
    "postcode_id": 24993,
    "latitude": -6.1742,
    "longitude": 106.95673,
    "phone": "085217920982"
  },
  {
    "outlet_sap_id": "AJ50",
    "name": "KF Mekarsari Bekasi",
    "department_id": 3110,
    "store_type": "NONE",
    "operational_date": "2023-04-08",
    "address": "Ruko Libersa Park, JI. Agus Salim RT. 003 RW. 007, Kel. Bekasi Jaya, Kec. Bekasi Timur - Kota Bekasi",
    "postcode_id": 25281,
    "latitude": -6.231889923,
    "longitude": 107.0096603,
    "phone": "085217920983"
  },
  {
    "outlet_sap_id": "AK03",
    "name": "KF.0440 Veteran",
    "department_id": 3111,
    "store_type": "BASIC_HEALTH",
    "operational_date": "2013-05-01",
    "address": "Jl. Veteran No. 97 Desa/Kelurahan Nagri Kaler",
    "postcode_id": 28845,
    "latitude": -6.527799,
    "longitude": 107.447204,
    "phone": "081294768307"
  },
  {
    "outlet_sap_id": "AK11",
    "name": "KF 0768 Lamaran",
    "department_id": 3111,
    "store_type": "BASIC_HEALTH",
    "operational_date": "2016-08-01",
    "address": "JL Syech Quro Kelurahan Karawang Wetan, Kec. Karawang Timur, Kab. Karawang",
    "postcode_id": 25249,
    "latitude": -6.30544,
    "longitude": 107.32266,
    "phone": "085161763773"
  },
  {
    "outlet_sap_id": "AK19",
    "name": "KF TANJUNGMEKAR",
    "department_id": 3111,
    "store_type": "NONE",
    "operational_date": "2018-04-01",
    "address": "Jl. Raya Proklamasi No. 6 Tj.Mekar",
    "postcode_id": 25248,
    "latitude": -6.27078,
    "longitude": 107.27222,
    "phone": "081"
  },
  {
    "outlet_sap_id": "AK20",
    "name": "KF Rengas Dengklok",
    "department_id": 3111,
    "store_type": "MEDICAL",
    "operational_date": "2018-09-27",
    "address": "Jl.Proklamasi No.115, Rengasdeng, Rengasdengklok,Kab. Karawang, Jawa Barat",
    "postcode_id": 27579,
    "latitude": -6.1640736,
    "longitude": 107.2956773,
    "phone": "085156074326"
  },
  {
    "outlet_sap_id": "AK29",
    "name": "KF Express Rest Area KM72A",
    "department_id": 3111,
    "store_type": "MEDICAL",
    "operational_date": "2021-12-10",
    "address": "Rest Area Km 72 Tol Purbaleunyi Desa Cigelam Kec. Babakancikao, Kab. Purwakarta, Jawa Barat",
    "postcode_id": 25342,
    "latitude": -6.466098501,
    "longitude": 107.4448316,
    "phone": "08990836810"
  },
  {
    "outlet_sap_id": "AK30",
    "name": "KF Pinayungan",
    "department_id": 3111,
    "store_type": "BASIC_HEALTH",
    "operational_date": "1010-01-01",
    "address": "Jalan Pinayungan Dusun Sukadana RT010/04 Desa Pinayungan Kec Teluk Jambe",
    "postcode_id": 1,
    "latitude": -6.346489,
    "longitude": 107.303546,
    "phone": "02676486952"
  },
  {
    "outlet_sap_id": "AK31",
    "name": "KF Express Rest Area KM 88A",
    "department_id": 3111,
    "store_type": "MEDICAL",
    "operational_date": "2024-12-18",
    "address": "Rest Area Km 88 A, Tol Cipularang Rest Area KM. 88A, Cipularang, Jl. Tol Purbaleunyi Rest Area Tol No.Km 88 A",
    "postcode_id": 25414,
    "latitude": -6.60237,
    "longitude": 107.42737,
    "phone": "085174184557"
  },
  {
    "outlet_sap_id": "AK32",
    "name": "KF Wirabrata",
    "department_id": 3111,
    "store_type": "NONE",
    "operational_date": "1010-01-01",
    "address": "Jl. Berlian Kel. Cikampek Utara, Ke",
    "postcode_id": 26279,
    "latitude": -6.39038,
    "longitude": 107.46657,
    "phone": "021"
  },
  {
    "outlet_sap_id": "AL12",
    "name": "Klinik Cilendek",
    "department_id": 3112,
    "store_type": "",
    "operational_date": "2017-08-17",
    "address": "Jl. Brigjen Saptaji Hadiprawira",
    "postcode_id": 1,
    "latitude": 0,
    "longitude": 0,
    "phone": "A"
  },
  {
    "outlet_sap_id": "AL2212",
    "name": "PPO Klinik KF Ya Rahman",
    "department_id": 3112,
    "store_type": "NONE",
    "operational_date": "2019-01-01",
    "address": "Jl. Raya Parung Gunung Sindur No. 2",
    "postcode_id": 1,
    "latitude": -6.4187711,
    "longitude": 106.7299444,
    "phone": "02518610195"
  },
  {
    "outlet_sap_id": "AL29",
    "name": "KF Ya Rahman",
    "department_id": 3112,
    "store_type": "NONE",
    "operational_date": "2022-10-01",
    "address": "Jl Raya Parung - Gunung Sindur No 2",
    "postcode_id": 1,
    "latitude": -6.4184176,
    "longitude": 106.7294281,
    "phone": "088297065813"
  },
  {
    "outlet_sap_id": "AL30",
    "name": "KF Cilendek",
    "department_id": 3112,
    "store_type": "BASIC_HEALTH",
    "operational_date": "1010-01-01",
    "address": "Jl. Brigjen Saptaji Hadiprawira, Kota Bogor Barat,Kota Bogor, Jawa Barat,",
    "postcode_id": 1,
    "latitude": -6.5741741,
    "longitude": 106.7699358,
    "phone": "085711667027"
  },
  {
    "outlet_sap_id": "AL31",
    "name": "KF Pasir Kuda",
    "department_id": 3112,
    "store_type": "BASIC_HEALTH",
    "operational_date": "1010-01-01",
    "address": "Jl. RE Abdullah No 12 RT 001/001 ,",
    "postcode_id": 1,
    "latitude": -6.6006019,
    "longitude": 106.7768509,
    "phone": "082219032800"
  },
  {
    "outlet_sap_id": "AM01",
    "name": "KF.0143",
    "department_id": 3113,
    "store_type": "HEALTH_AND_CARE",
    "operational_date": "2006-01-01",
    "address": "Jl. Margonda Raya No. 154A",
    "postcode_id": 27962,
    "latitude": -6.388452,
    "longitude": 106.826727,
    "phone": "081110678334"
  },
  {
    "outlet_sap_id": "AM0212",
    "name": "PPO KF 202 T Iskandar",
    "department_id": 3113,
    "store_type": "NONE",
    "operational_date": "2024-09-01",
    "address": "Jl.Tole Iskandar No.17",
    "postcode_id": 28638,
    "latitude": -6.405127,
    "longitude": 106.8469191,
    "phone": "081399930204"
  },
  {
    "outlet_sap_id": "AM03",
    "name": "KF.0352 Margonda",
    "department_id": 3113,
    "store_type": "BASIC_HEALTH",
    "operational_date": "2009-01-01",
    "address": "Jl. Margonda Raya No. 326",
    "postcode_id": 27962,
    "latitude": -6.3755,
    "longitude": 106.832461,
    "phone": "081110678325"
  },
  {
    "outlet_sap_id": "AM0411",
    "name": "PPO KF 366",
    "department_id": 3113,
    "store_type": "NONE",
    "operational_date": "2020-03-01",
    "address": "Ruko Maharaja Blok A1 No. 03",
    "postcode_id": 29773,
    "latitude": -6.39528,
    "longitude": 106.803802,
    "phone": "021"
  },
  {
    "outlet_sap_id": "AM0611",
    "name": "PPO KF 382",
    "department_id": 3113,
    "store_type": "MEDICAL",
    "operational_date": "2019-12-31",
    "address": "Jl. Komjen. Pol. M. Jasin No.59",
    "postcode_id": 29305,
    "latitude": 6.845489,
    "longitude": -6.354632,
    "phone": "08119980354"
  },
  {
    "outlet_sap_id": "AM09",
    "name": "KF 0394 Melati",
    "department_id": 3113,
    "store_type": "NONE",
    "operational_date": "2011-01-01",
    "address": "Jl. Melati No.14, RT.004/RW.010, Depok, Kec. Pancoran Mas, Kota Depok, Jawa Barat",
    "postcode_id": 26980,
    "latitude": -6.399471,
    "longitude": 106.821284,
    "phone": "081110678394"
  },
  {
    "outlet_sap_id": "AM12",
    "name": "KF.0491 Sawangan",
    "department_id": 3113,
    "store_type": "HEALTH_AND_CARE",
    "operational_date": "2013-11-01",
    "address": "Jl. Raya Muchtar No. 76E",
    "postcode_id": 29773,
    "latitude": -6.40640626,
    "longitude": 106.75663,
    "phone": "081110678343"
  },
  {
    "outlet_sap_id": "AM13",
    "name": "KF.0568 Bojong Sari",
    "department_id": 3113,
    "store_type": "NONE",
    "operational_date": "2014-09-01",
    "address": "Jl. Raya Parung Ciputat RT 01/",
    "postcode_id": 25600,
    "latitude": -6.399246,
    "longitude": 106.742878,
    "phone": "081310664684"
  },
  {
    "outlet_sap_id": "AM17",
    "name": "KF. 0757",
    "department_id": 3113,
    "store_type": "BASIC_HEALTH",
    "operational_date": "2016-10-15",
    "address": "Jl. Raya Sawangan No.RT 003/009",
    "postcode_id": 29626,
    "latitude": -6.395888432,
    "longitude": 106.7774339,
    "phone": "081110678327"
  },
  {
    "outlet_sap_id": "AM19",
    "name": "KF Radar Auri",
    "department_id": 3113,
    "store_type": "BASIC_HEALTH",
    "operational_date": "2017-03-17",
    "address": "Jl. Radar Auri, Kel Cisalak Pasar, Cimanggis, Kota Depok, Jawa Barat",
    "postcode_id": 29305,
    "latitude": -6.372455675,
    "longitude": 106.8657579,
    "phone": "085779492694"
  },
  {
    "outlet_sap_id": "AM24",
    "name": "KF Ratu Jaya",
    "department_id": 3113,
    "store_type": "BASIC_HEALTH",
    "operational_date": "2019-08-03",
    "address": "Jl, Raya Ratu Jaya Kel Ratu Jaya",
    "postcode_id": 29633,
    "latitude": -6.413727562,
    "longitude": 106.8159859,
    "phone": "08119221819"
  },
  {
    "outlet_sap_id": "AM2711",
    "name": "PPO KF Adelina Sawangan 0757",
    "department_id": 3113,
    "store_type": "NONE",
    "operational_date": "2024-09-01",
    "address": "Jl. Raya Sawangan No.RT 003/009",
    "postcode_id": 26980,
    "latitude": -6.395888432,
    "longitude": 106.7774339,
    "phone": "081110678327"
  },
  {
    "outlet_sap_id": "AM31",
    "name": "KF Adelina Tanah Baru",
    "department_id": 3113,
    "store_type": "MEDICAL",
    "operational_date": "2022-07-11",
    "address": "Perumahan Exclusive Tanah Baru No. 2, RT.006/001",
    "postcode_id": 25534,
    "latitude": -6.383228,
    "longitude": 106.80759,
    "phone": "08119708994"
  },
  {
    "outlet_sap_id": "AM32",
    "name": "KF Leuwinanggung",
    "department_id": 3113,
    "store_type": "BASIC_HEALTH",
    "operational_date": "1010-01-01",
    "address": "Jl. Kramat Rt 004 Rt 002",
    "postcode_id": 27412,
    "latitude": -6.407177119,
    "longitude": 106.9046762,
    "phone": "085175013798"
  },
  {
    "outlet_sap_id": "AN20",
    "name": "KF 955 Cikijing",
    "department_id": 3114,
    "store_type": "NONE",
    "operational_date": "2017-10-01",
    "address": "Jl. KH Abdul Fatah No.14 Cikijing",
    "postcode_id": 25361,
    "latitude": -7.016469436,
    "longitude": 108.366361,
    "phone": "021"
  },
  {
    "outlet_sap_id": "AN31",
    "name": "KF Sultan Ageng",
    "department_id": 3114,
    "store_type": "NONE",
    "operational_date": "1010-01-01",
    "address": "Jl. Sultan Ageng Tirtayasa No.230",
    "postcode_id": 27615,
    "latitude": -6.71128,
    "longitude": 108.52813,
    "phone": "082219921446"
  },
  {
    "outlet_sap_id": "AO24",
    "name": "KF.0838",
    "department_id": 3115,
    "store_type": "BASIC_HEALTH",
    "operational_date": "2016-11-16",
    "address": "JL. PANTAI BERAWA NO 16,BR. PELAMBINGAN, DESA TIBUBENENG,KECAMATAN KUTA UTARA, KABUPATEN BADUNG, PROVINSI BALI",
    "postcode_id": 50909,
    "latitude": -8.6449074,
    "longitude": 115.1528273,
    "phone": "085739001063"
  },
  {
    "outlet_sap_id": "AO30",
    "name": "KF 940 Canggu",
    "department_id": 3115,
    "store_type": "BASIC_HEALTH",
    "operational_date": "2017-08-17",
    "address": "JL. Raya Canggu No. 77 Canggu, Kuta Utara",
    "postcode_id": 50409,
    "latitude": -8.6370401,
    "longitude": 115.1474197,
    "phone": "081110678159"
  },
  {
    "outlet_sap_id": "AO47",
    "name": "KF Express Bandara I Gusti Ngurah Rai",
    "department_id": 3115,
    "store_type": "MEDICAL",
    "operational_date": "2021-12-27",
    "address": "Jl Raya Ngurah Rai, Tuban, Kuta, Badung",
    "postcode_id": 50409,
    "latitude": -8.7450589,
    "longitude": 115.1627288,
    "phone": "08197888886"
  },
  {
    "outlet_sap_id": "AO48",
    "name": "KF Pecatu",
    "department_id": 3115,
    "store_type": "MEDICAL",
    "operational_date": "2023-01-01",
    "address": "Jl. Raya Uluwatu Pecatu No.78, Pecatu, Kec. Kuta Sel., Kabupaten Badung, Bali",
    "postcode_id": 50354,
    "latitude": -8.8296964,
    "longitude": 115.1361158,
    "phone": "081337803374"
  },
  {
    "outlet_sap_id": "AO49",
    "name": "KF PADMA 2",
    "department_id": 3115,
    "store_type": "MEDICAL",
    "operational_date": "2023-09-10",
    "address": "Jl. Raya Padma Utara No. 4",
    "postcode_id": 50409,
    "latitude": -8.7049895,
    "longitude": -8.7049895,
    "phone": "021"
  },
  {
    "outlet_sap_id": "AO50",
    "name": "KF Pepito Sawangan",
    "department_id": 3115,
    "store_type": "MEDICAL",
    "operational_date": "2024-03-13",
    "address": "Jl. Raya Nusa Dua Selatan, Benoa Ke",
    "postcode_id": 50409,
    "latitude": -6.45484,
    "longitude": -6.05144,
    "phone": "082322624525"
  },
  {
    "outlet_sap_id": "AP01",
    "name": "KF.0034",
    "department_id": 3116,
    "store_type": "BASIC_HEALTH",
    "operational_date": "2003-01-01",
    "address": "Jl. Diponegoro No.125",
    "postcode_id": 50435,
    "latitude": -8.669885,
    "longitude": 115.215785,
    "phone": "081138115341"
  },
  {
    "outlet_sap_id": "AP14",
    "name": "KF.0235 Imam B",
    "department_id": 3116,
    "store_type": "MEDICAL",
    "operational_date": "2003-01-01",
    "address": "Jl. Iman Bonjol No.66",
    "postcode_id": 50686,
    "latitude": -8.664916,
    "longitude": 115.207113,
    "phone": "081138115353"
  },
  {
    "outlet_sap_id": "AP15",
    "name": "KF.0276 Manyar",
    "department_id": 3116,
    "store_type": "BASIC_HEALTH",
    "operational_date": "2004-01-01",
    "address": "Jl. Cokroaminoto. No.410",
    "postcode_id": 50943,
    "latitude": -8.617887,
    "longitude": 115.196083,
    "phone": "081138115354"
  },
  {
    "outlet_sap_id": "AP32",
    "name": "KF 939 Tukad Balian",
    "department_id": 3116,
    "store_type": "BASIC_HEALTH",
    "operational_date": "2017-09-17",
    "address": "Jl. Tukad Balian No 123 Renon",
    "postcode_id": 50688,
    "latitude": -8.6882223,
    "longitude": 115.2398456,
    "phone": "081138115371"
  },
  {
    "outlet_sap_id": "AP33",
    "name": "KF Marlboro",
    "department_id": 3116,
    "store_type": "MEDICAL",
    "operational_date": "2018-04-01",
    "address": "Jl. Teuku Umar Barat",
    "postcode_id": 50686,
    "latitude": -8.681853,
    "longitude": 115.19291,
    "phone": "081138115372"
  },
  {
    "outlet_sap_id": "AP38",
    "name": "KF Celuk",
    "department_id": 3116,
    "store_type": "MEDICAL",
    "operational_date": "2018-08-01",
    "address": "Jl. Raya Celuk No. 81X",
    "postcode_id": 50318,
    "latitude": -8.58602,
    "longitude": 115.26269,
    "phone": 0
  },
  {
    "outlet_sap_id": "AP46",
    "name": "APT.KF.IMAM BONJOL 2",
    "department_id": 3116,
    "store_type": "BASIC_HEALTH",
    "operational_date": "2019-06-23",
    "address": "Jl. Imam Bonjol No. 515B",
    "postcode_id": 50686,
    "latitude": -8.6960926,
    "longitude": 115.1866658,
    "phone": "081139001510"
  },
  {
    "outlet_sap_id": "AP47",
    "name": "KF Buana Raya",
    "department_id": 3116,
    "store_type": "BASIC_HEALTH",
    "operational_date": "2020-12-01",
    "address": "Jl. Buana Raya No.18, Kel. Padang Sambian, Kec. Denpasar Barat, Denpasar",
    "postcode_id": 50642,
    "latitude": -8.660061,
    "longitude": 115.187569,
    "phone": "081138215642"
  },
  {
    "outlet_sap_id": "AP48",
    "name": "KF Monkey Forest",
    "department_id": 3116,
    "store_type": "BASIC_HEALTH",
    "operational_date": "1010-01-01",
    "address": "Jl. Wanara Wana, Desa Ubud, Gianyar",
    "postcode_id": 50516,
    "latitude": 8.514743,
    "longitude": 115.260299,
    "phone": "081138301551"
  },
  {
    "outlet_sap_id": "AP49",
    "name": "KF Karangasem",
    "department_id": 3116,
    "store_type": "MEDICAL",
    "operational_date": "2023-05-28",
    "address": "Jalan Untung Surapati No.88x",
    "postcode_id": 50390,
    "latitude": -8.4439211,
    "longitude": 115.6008623,
    "phone": "081138302038"
  },
  {
    "outlet_sap_id": "AP50",
    "name": "KF Danau Tamblingan 1",
    "department_id": 3116,
    "store_type": "MEDICAL",
    "operational_date": "2023-07-01",
    "address": "Jl. Danau Tamblingan No. 80 Sanur,",
    "postcode_id": 50688,
    "latitude": -8.6888342,
    "longitude": 115.2632251,
    "phone": "081138302039"
  },
  {
    "outlet_sap_id": "AP51",
    "name": "KF Ubud Raya",
    "department_id": 3116,
    "store_type": "MEDICAL",
    "operational_date": "2023-08-26",
    "address": "Jl. Ubud Raya No.1",
    "postcode_id": 50516,
    "latitude": -8.508559,
    "longitude": 115.26645,
    "phone": "021"
  },
  {
    "outlet_sap_id": "AQ0123",
    "name": "PPO Tokopedia Marketplace Blok M",
    "department_id": 3117,
    "store_type": "NONE",
    "operational_date": "1010-01-01",
    "address": "Jl. St.Hasanuddin No. 1",
    "postcode_id": 25204,
    "latitude": -6.2439459,
    "longitude": 106.7961223,
    "phone": "0895324874355"
  },
  {
    "outlet_sap_id": "AQ0126",
    "name": "PPO KF First Care",
    "department_id": 3117,
    "store_type": "MEDICAL",
    "operational_date": "1010-01-01",
    "address": "Jl. Panglima Polim III No.5 Melawai",
    "postcode_id": 25204,
    "latitude": -6.252142245,
    "longitude": 106.800453,
    "phone": "021"
  },
  {
    "outlet_sap_id": "AQ0311",
    "name": "PPO Klinik KF PLN Gambir",
    "department_id": 3117,
    "store_type": "MEDICAL",
    "operational_date": "2019-01-01",
    "address": "Jl. M.I. Ridwan Rais No.1, RT.7/RW.Jl. M.I. Ridwan Rais No.1, RT.7/RW.1, Gambir, Jakarta Pusat",
    "postcode_id": 25034,
    "latitude": -6.243996,
    "longitude": 106.798324,
    "phone": 82299781278
  },
  {
    "outlet_sap_id": "AQ0312",
    "name": "PPO KF PLN Gandul",
    "department_id": 3117,
    "store_type": "MEDICAL",
    "operational_date": "1010-01-01",
    "address": "Kuttab Ar-Rahman . Jl. Ehave No. 01",
    "postcode_id": 27064,
    "latitude": -6.345732743,
    "longitude": 106.7853707,
    "phone": "021"
  },
  {
    "outlet_sap_id": "AQ06",
    "name": "KF.0254 Pos Pengumben",
    "department_id": 3117,
    "store_type": "SUPER_STORE",
    "operational_date": "2003-01-01",
    "address": "Jl. Raya Pos Pengumben Blok I No.11",
    "postcode_id": 25216,
    "latitude": -6.216876,
    "longitude": 106.76983,
    "phone": "081219112426"
  },
  {
    "outlet_sap_id": "AQ0611",
    "name": "PPO Klinik KF 254",
    "department_id": 3117,
    "store_type": "NONE",
    "operational_date": "2019-01-01",
    "address": "Jl. Pos Pengumben Raya Blok I No 11 Kebon Jeruk",
    "postcode_id": 25028,
    "latitude": -6.2168789,
    "longitude": 106.769828,
    "phone": "087877241405"
  },
  {
    "outlet_sap_id": "AQ22",
    "name": "KF.0652 Ceger",
    "department_id": 3117,
    "store_type": "BASIC_HEALTH",
    "operational_date": "2015-07-01",
    "address": "Jl.Ceger Raya No.9B Pondok Are",
    "postcode_id": 49236,
    "latitude": -6.26289,
    "longitude": 106.734752,
    "phone": "081776952673"
  },
  {
    "outlet_sap_id": "AQ24",
    "name": "APT.055 OSHCS",
    "department_id": 3117,
    "store_type": "SUPER_STORE",
    "operational_date": "2003-01-01",
    "address": "Jl.Kebayoran Lama No 50,RT/RW. 001/001",
    "postcode_id": 25216,
    "latitude": -6.226488,
    "longitude": 106.778291,
    "phone": "081212365088"
  },
  {
    "outlet_sap_id": "AQ2402",
    "name": "Optik KF.055 OSHCS",
    "department_id": 3117,
    "store_type": "",
    "operational_date": "2003-01-01",
    "address": "Jln. Raya Kebayoran Lama No. 50",
    "postcode_id": 25042,
    "latitude": -6.226541,
    "longitude": 106.776118,
    "phone": 0
  },
  {
    "outlet_sap_id": "AQ2411",
    "name": "PPO OPTIK KF.0055 OSHCS",
    "department_id": 3117,
    "store_type": "MEDICAL",
    "operational_date": "2019-01-01",
    "address": "Jln. Raya Kebayoran Lama No. 50",
    "postcode_id": 25042,
    "latitude": -6.2265514,
    "longitude": 106.7781906,
    "phone": "021"
  },
  {
    "outlet_sap_id": "AQ2916",
    "name": "PPO VM Halte Transjakarta Puri Beta 2",
    "department_id": 3117,
    "store_type": "NONE",
    "operational_date": "1010-01-01",
    "address": "Karang Tim., Kec. Karang Tengah, Ko",
    "postcode_id": 49311,
    "latitude": -6.2192305,
    "longitude": 106.7167935,
    "phone": "021"
  },
  {
    "outlet_sap_id": "AQ35",
    "name": "Klinik Mandiri KF Kampung Sawah",
    "department_id": 3117,
    "store_type": "",
    "operational_date": "2018-03-08",
    "address": "Jl. Ki Hajar Dewantoro No. 189 Kamp",
    "postcode_id": 48866,
    "latitude": 0,
    "longitude": 0,
    "phone": "0217446549"
  },
  {
    "outlet_sap_id": "AQ37",
    "name": "KLINIK MANDIRI KF BPOM",
    "department_id": 3117,
    "store_type": "",
    "operational_date": "2018-01-01",
    "address": "Jl. Percetakan Negara No. 23 Jakarta Pusat",
    "postcode_id": 25033,
    "latitude": 0,
    "longitude": 0,
    "phone": 0
  },
  {
    "outlet_sap_id": "AQ39",
    "name": "Klinik Mandiri KF Joglo",
    "department_id": 3117,
    "store_type": "",
    "operational_date": "2018-01-01",
    "address": "Jl. Joglo Raya No 117, Kembangan -",
    "postcode_id": 25106,
    "latitude": 0,
    "longitude": 0,
    "phone": "02125680447"
  },
  {
    "outlet_sap_id": "AQ42",
    "name": "KLINIK MANDIRI KF PLN GAMBIR",
    "department_id": 3117,
    "store_type": "",
    "operational_date": "2018-01-01",
    "address": "Jl. M.I. Ridwan Rais No.1, RT.7/RW.1, Gambir, Jakarta Pusat",
    "postcode_id": 25034,
    "latitude": 0,
    "longitude": 0,
    "phone": 0
  },
  {
    "outlet_sap_id": "AQ45",
    "name": "KF 1088 Fatmawati",
    "department_id": 3117,
    "store_type": "NONE",
    "operational_date": "2018-09-01",
    "address": "Jl. RS Fatmawati, Cipete Selatan,",
    "postcode_id": 25204,
    "latitude": -1.33849,
    "longitude": -1.23,
    "phone": "0212354874"
  },
  {
    "outlet_sap_id": "AQ4711",
    "name": "PPO KF Pakubuwono",
    "department_id": 3117,
    "store_type": "NONE",
    "operational_date": "1010-01-01",
    "address": "Apartemen Pakubuwono Residence, Jl.",
    "postcode_id": 25204,
    "latitude": -6.2372927,
    "longitude": 106.7866479,
    "phone": "021"
  },
  {
    "outlet_sap_id": "AQ4811",
    "name": "PPO Klinik KF Lions Club",
    "department_id": 3117,
    "store_type": "NONE",
    "operational_date": "2019-01-01",
    "address": "Jl. Raya Pluit Timur Kav B2 Pluit,",
    "postcode_id": 25232,
    "latitude": 0,
    "longitude": 0,
    "phone": "021"
  },
  {
    "outlet_sap_id": "AQ58",
    "name": "Klinik Mandiri KF Season City",
    "department_id": 3117,
    "store_type": "MEDICAL",
    "operational_date": "2020-05-01",
    "address": "Seasons City mall lantai 2 Jl Professor Dr.Latumeten No.33",
    "postcode_id": 25226,
    "latitude": -6.1690266,
    "longitude": 106.7290939,
    "phone": "022638081"
  },
  {
    "outlet_sap_id": "AQ63",
    "name": "Klinik Mandiri KF Mutiara Cawang",
    "department_id": 3117,
    "store_type": "",
    "operational_date": "1010-01-01",
    "address": "Jl. Cawang Baru Utara No. 18, Cipinang Cempedak, Jatinegara, Jakarta Timur",
    "postcode_id": 24983,
    "latitude": 0,
    "longitude": 0,
    "phone": "0218507050"
  },
  {
    "outlet_sap_id": "AQ67",
    "name": "KF H&B Mall Gandaria City",
    "department_id": 3117,
    "store_type": "MEDICAL",
    "operational_date": "2022-04-20",
    "address": "Gandaria City Mall,Lantai UG,Jl. Sultan Iskandar Muda, RT.10/RW.6, Kebayoran Lama Utara, Kebayoran Lama, Jakarta Selatan",
    "postcode_id": 25086,
    "latitude": -6.244172366,
    "longitude": 106.78353,
    "phone": "085876861055"
  },
  {
    "outlet_sap_id": "AQ68",
    "name": "Apt. KF. MERUYA",
    "department_id": 3117,
    "store_type": "BASIC_HEALTH",
    "operational_date": "1010-01-01",
    "address": "JL. Meruya Selatan Raya No. 47 RT. 05 RW. 01",
    "postcode_id": 25106,
    "latitude": -6.216658451,
    "longitude": 106.7374571,
    "phone": "085219542305"
  },
  {
    "outlet_sap_id": "AQ6816",
    "name": "PPO VM Halte Transjakarta Puri Beta 2",
    "department_id": 3117,
    "store_type": "NONE",
    "operational_date": "1010-01-01",
    "address": "Karang Tim., Kec. Karang Tengah, Ko",
    "postcode_id": 49311,
    "latitude": -6.2192305,
    "longitude": 106.7167935,
    "phone": "021"
  },
  {
    "outlet_sap_id": "AQ69",
    "name": "Apt. KF. CITRA GARDEN",
    "department_id": 3117,
    "store_type": "BASIC_HEALTH",
    "operational_date": "1010-01-01",
    "address": "Jl. Citra Garden 1 Blok I1 No. 14 K",
    "postcode_id": 1,
    "latitude": -6.145106655,
    "longitude": 106.6958049,
    "phone": "081396664397"
  },
  {
    "outlet_sap_id": "AR0317",
    "name": "PPO PRJ Reguler KF Kemayoran",
    "department_id": 3118,
    "store_type": "NONE",
    "operational_date": "2024-06-10",
    "address": "Gedung Pusat Niaga Arena Jiexpo Kem",
    "postcode_id": 25045,
    "latitude": -6.146707213,
    "longitude": 106.8445543,
    "phone": "021"
  },
  {
    "outlet_sap_id": "AR0318",
    "name": "PPO PRJ Flash Sale KF Kemayoran",
    "department_id": 3118,
    "store_type": "NONE",
    "operational_date": "2024-06-10",
    "address": "Gedung Pusat Niaga Arena Jiexpo Kem",
    "postcode_id": 25143,
    "latitude": -6.146707213,
    "longitude": 106.8445543,
    "phone": "021"
  },
  {
    "outlet_sap_id": "AR07",
    "name": "APT. KF.0046 RAWA BADAK",
    "department_id": 3118,
    "store_type": "NONE",
    "operational_date": "2003-01-01",
    "address": "Lorong 104 No.5B, Rawa Badak Utara, Koja, Jakarta Utara, DKI Jakarta",
    "postcode_id": 25194,
    "latitude": -6.114081,
    "longitude": 106.894138,
    "phone": "08112221916"
  },
  {
    "outlet_sap_id": "AR08",
    "name": "APT. KF.0048 MATRAMAN",
    "department_id": 3118,
    "store_type": "SUPER_STORE",
    "operational_date": "2003-01-01",
    "address": "Jl. Matraman Raya No. 85, Pal Meriem,",
    "postcode_id": 25144,
    "latitude": -6.20498,
    "longitude": 106.858195,
    "phone": "08112223048"
  },
  {
    "outlet_sap_id": "AR0902",
    "name": "Optik KF.Angkasa Pura II",
    "department_id": 3118,
    "store_type": "",
    "operational_date": "2010-01-01",
    "address": "Jl. Bandara Soekarno Hatta, Gedung 600 Kantor Pusat Bandara Seokarno Hatta",
    "postcode_id": 48835,
    "latitude": 0,
    "longitude": 0,
    "phone": "0215507981"
  },
  {
    "outlet_sap_id": "AR1002",
    "name": "Optik - KF.0049 - Optik",
    "department_id": 3118,
    "store_type": "",
    "operational_date": "2010-01-01",
    "address": "Jl. Pahlawan Revolusi No. 53",
    "postcode_id": 25176,
    "latitude": 0,
    "longitude": 0,
    "phone": ""
  },
  {
    "outlet_sap_id": "AR1902",
    "name": "OPTIK  KF.450 CIBUBUR LT",
    "department_id": 3118,
    "store_type": "",
    "operational_date": "2010-01-01",
    "address": "Jl. Lawu B1 No.01",
    "postcode_id": 25002,
    "latitude": 0,
    "longitude": 0,
    "phone": ""
  },
  {
    "outlet_sap_id": "AR2101",
    "name": "Klinik - KF Menteng Huis",
    "department_id": 3118,
    "store_type": "",
    "operational_date": "2006-01-01",
    "address": "Jl. Cikini Raya No. 2",
    "postcode_id": 25138,
    "latitude": 0,
    "longitude": 0,
    "phone": ""
  },
  {
    "outlet_sap_id": "AR36",
    "name": "KF Express Terminal 3 Internasional",
    "department_id": 3118,
    "store_type": "MEDICAL",
    "operational_date": "2017-05-01",
    "address": "Jl. P-2, Terminal 3 Ultimate Bandara Internasional Soekarno Hatta, Pajang, Benda, Kota Tangerang, 15126",
    "postcode_id": 48787,
    "latitude": -6.118921,
    "longitude": 106.66317,
    "phone": "081224984872"
  },
  {
    "outlet_sap_id": "AR38",
    "name": "KF H&B Green Pramuka Square",
    "department_id": 3118,
    "store_type": "BASIC_HEALTH",
    "operational_date": "2017-08-17",
    "address": "Jl. Letjend A. Yani Kav 49",
    "postcode_id": 24999,
    "latitude": -6.188961335,
    "longitude": 106.8739925,
    "phone": "08112223053"
  },
  {
    "outlet_sap_id": "AR41",
    "name": "Klinik Mandiri KF Plaza Danamon",
    "department_id": 3118,
    "store_type": "",
    "operational_date": "2017-01-01",
    "address": "Jl. HR Rasuna Said Kav.C No.10 Jakar",
    "postcode_id": 25064,
    "latitude": 0,
    "longitude": 0,
    "phone": 0
  },
  {
    "outlet_sap_id": "AR42",
    "name": "Apotek Kimia Farma Cililitan Besar",
    "department_id": 3118,
    "store_type": "BASIC_HEALTH",
    "operational_date": "2018-01-18",
    "address": "Jl. Cililitan Besar No.12",
    "postcode_id": 25171,
    "latitude": -6.265434,
    "longitude": 106.875995,
    "phone": "08112223042"
  },
  {
    "outlet_sap_id": "AR47",
    "name": "APT. KF.HOTEL HOLIDAY IN EXPRESS",
    "department_id": 3118,
    "store_type": "MEDICAL",
    "operational_date": "2018-10-01",
    "address": "Jl. Matraman Raya No. 55, Pal Meriem, Matraman, Kota Jakarta Timur, DKI Jakarta - 13140",
    "postcode_id": 25144,
    "latitude": -6.203059,
    "longitude": 106.857366,
    "phone": "08112221831"
  },
  {
    "outlet_sap_id": "AR50",
    "name": "KF H&B Mall Sarinah",
    "department_id": 3118,
    "store_type": "BASIC_HEALTH",
    "operational_date": "2022-03-21",
    "address": "Mall Sarinah, Jl. M.H. Thamrin No.11 RT.008 RW.04 GONDANGDIA, Menteng, Kota Jakarta Pusat, DKI Jakarta, 10350",
    "postcode_id": 25138,
    "latitude": -6.187543,
    "longitude": 106.823631,
    "phone": "081398330019"
  },
  {
    "outlet_sap_id": "AR51",
    "name": "KF Kelapa Gading 2",
    "department_id": 3118,
    "store_type": "MEDICAL",
    "operational_date": "1010-01-01",
    "address": "Jl.Boulevard Kelapa Gading QA-05/05",
    "postcode_id": 25102,
    "latitude": -6.151469,
    "longitude": 106.909034,
    "phone": "085210115800"
  },
  {
    "outlet_sap_id": "AR52",
    "name": "KF Kalisari",
    "department_id": 3118,
    "store_type": "BASIC_HEALTH",
    "operational_date": "1010-01-01",
    "address": "Jl. Kalisari II, RT.13/RW.1,Pekayon",
    "postcode_id": 25158,
    "latitude": -6.341976,
    "longitude": 106.857709,
    "phone": "081391763914"
  },
  {
    "outlet_sap_id": "AR53",
    "name": "KF Bina Marga Cipayung",
    "department_id": 3118,
    "store_type": "MEDICAL",
    "operational_date": "1010-01-01",
    "address": "Jl. Bina Marga No. 94A, Cipayung",
    "postcode_id": 25124,
    "latitude": -6.329375,
    "longitude": 106.888239,
    "phone": "082312481193"
  },
  {
    "outlet_sap_id": "AR54",
    "name": "KF Cempaka Putih Tengah",
    "department_id": 3118,
    "store_type": "BASIC_HEALTH",
    "operational_date": "1010-01-01",
    "address": "JL. Cempaka Putih Tengah XXX NO.5D",
    "postcode_id": 24999,
    "latitude": -6.170541,
    "longitude": 106.871513,
    "phone": "085216970779"
  },
  {
    "outlet_sap_id": "AR55",
    "name": "KF Danau Indah Sunter",
    "department_id": 3118,
    "store_type": "BASIC_HEALTH",
    "operational_date": "1010-01-01",
    "address": "Jl. Danau Indah Raya No.C-2/2, RW.13, Sunter Jaya,",
    "postcode_id": 25232,
    "latitude": -6.149832,
    "longitude": 106.882787,
    "phone": "081110500255"
  },
  {
    "outlet_sap_id": "AR56",
    "name": "KF Pantai Indah Kapuk",
    "department_id": 3118,
    "store_type": "BASIC_HEALTH",
    "operational_date": "1010-01-01",
    "address": "Rukan crown golf Jl. Pantai Indah Kapuk No.b2, Kamal Muara",
    "postcode_id": 25163,
    "latitude": -6.111441,
    "longitude": 106.741701,
    "phone": "081113000255"
  },
  {
    "outlet_sap_id": "AS01",
    "name": "KF.0172",
    "department_id": 3119,
    "store_type": "BASIC_HEALTH",
    "operational_date": "2003-01-01",
    "address": "Jl koti no 36",
    "postcode_id": 77645,
    "latitude": -2.543552,
    "longitude": 140.706641,
    "phone": "081110678561"
  },
  {
    "outlet_sap_id": "AS05",
    "name": "KF.Pel062 RSUD Jayapura",
    "department_id": 3119,
    "store_type": "NONE",
    "operational_date": "2003-01-01",
    "address": "Jl. Kesehatan Dok II, Komp. RS",
    "postcode_id": 76053,
    "latitude": -2.534403,
    "longitude": 140.710864,
    "phone": "081247885363"
  },
  {
    "outlet_sap_id": "AS0511",
    "name": "PPO Apotek KF Kamkey",
    "department_id": 3119,
    "store_type": "",
    "operational_date": "1010-01-01",
    "address": "Jl.Gerilyawan No. 3C,Kamkey-Abepura",
    "postcode_id": 78944,
    "latitude": -2.613519,
    "longitude": 140.672648,
    "phone": "0967"
  },
  {
    "outlet_sap_id": "AS06",
    "name": "KF Grand Allison Sentani",
    "department_id": 3119,
    "store_type": "BASIC_HEALTH",
    "operational_date": "2003-01-01",
    "address": "JL. RAYA KEMIRI NO. 282 KOMPLEKS MISI SENTANI JAYAPURA",
    "postcode_id": 75114,
    "latitude": 14.0501601,
    "longitude": -2.563492,
    "phone": "021"
  },
  {
    "outlet_sap_id": "AS12",
    "name": "KF Mimika Baru",
    "department_id": 3119,
    "store_type": "BASIC_HEALTH",
    "operational_date": "1010-01-01",
    "address": "Jl.Budi Utomo No.8b Kel. Timika Ind",
    "postcode_id": 76092,
    "latitude": -4.54238,
    "longitude": 136.88374,
    "phone": "082262270143"
  },
  {
    "outlet_sap_id": "AS13",
    "name": "KF Nabire",
    "department_id": 3119,
    "store_type": "NEW",
    "operational_date": "1010-01-01",
    "address": "Jl. RE. Martadinata, Kel Oyehe, Kec Nabire, Kab. Nabire - Papua Tengah",
    "postcode_id": 76456,
    "latitude": -3.354138,
    "longitude": 135.508184,
    "phone": "000"
  },
  {
    "outlet_sap_id": "AT0111",
    "name": "PPO Klinik KF Gajah Mada",
    "department_id": 3120,
    "store_type": "MEDICAL",
    "operational_date": "2019-01-01",
    "address": "Jl. Gajah Mada 103 Jember",
    "postcode_id": 42473,
    "latitude": -8.1734167,
    "longitude": 113.6876432,
    "phone": "021"
  },
  {
    "outlet_sap_id": "AT0112",
    "name": "PPO Klinik KF Tanggul",
    "department_id": 3120,
    "store_type": "MEDICAL",
    "operational_date": "2019-01-01",
    "address": "Jl. PB. Sudirman 99 Tanggul Wetan J",
    "postcode_id": 41542,
    "latitude": -8.1638791,
    "longitude": 113.4547532,
    "phone": "081"
  },
  {
    "outlet_sap_id": "AT12",
    "name": "KF.0853",
    "department_id": 3120,
    "store_type": "MEDICAL",
    "operational_date": "2016-12-01",
    "address": "Selatan lampu merah lincing RT 02 RW 04, Dusun Lugonto, Desa Lemahbangdewo, Kec. Rogojampi, Kabupaten Banyuwangi, Jawa Timur",
    "postcode_id": 40237,
    "latitude": -8.3144389,
    "longitude": 114.2887615,
    "phone": "081112420002"
  },
  {
    "outlet_sap_id": "AT22",
    "name": "KF Lumajang",
    "department_id": 3120,
    "store_type": "MEDICAL",
    "operational_date": "1010-01-01",
    "address": "JL. Brigjen Katamso 29, Tompokerasa",
    "postcode_id": 48206,
    "latitude": -8.12041623,
    "longitude": 113.2259339,
    "phone": "021"
  },
  {
    "outlet_sap_id": "AT23",
    "name": "KF Ambulu Jember",
    "department_id": 3120,
    "store_type": "MEDICAL",
    "operational_date": "2024-03-05",
    "address": "Jl. Watu Ulo No.2",
    "postcode_id": 42880,
    "latitude": -8.3480792,
    "longitude": 113.6056303,
    "phone": "081112420006"
  },
  {
    "outlet_sap_id": "AU10",
    "name": "KF 748 Sao-Sao",
    "department_id": 3121,
    "store_type": "BASIC_HEALTH",
    "operational_date": "2016-05-01",
    "address": "JL. SAO  SAO NO. 243, Kel. Bende Kec. Kadia, Kendari, Sulawesi Tenggara",
    "postcode_id": 69464,
    "latitude": -3.9854512,
    "longitude": 122.511662,
    "phone": "085298008305"
  },
  {
    "outlet_sap_id": "AU11",
    "name": "KF 773 Poasia",
    "department_id": 3121,
    "store_type": "BASIC_HEALTH",
    "operational_date": "2016-09-16",
    "address": "JL. Bunggasi PorosKel. Andonohu, Kec. Poasia, Kendari, Sulawesi Tenggara",
    "postcode_id": 69136,
    "latitude": -3.99978,
    "longitude": 122.54203,
    "phone": "085333650106"
  },
  {
    "outlet_sap_id": "AU18",
    "name": "KF Fatufia",
    "department_id": 3121,
    "store_type": "MEDICAL",
    "operational_date": "1010-01-01",
    "address": "Jl. Trans Sulawesi",
    "postcode_id": 64124,
    "latitude": -2.814948,
    "longitude": 122.157487,
    "phone": "082324643622"
  },
  {
    "outlet_sap_id": "AV01",
    "name": "KF.0101",
    "department_id": 3122,
    "store_type": "BASIC_HEALTH",
    "operational_date": "2003-01-01",
    "address": "Jl. Herewila No. 38",
    "postcode_id": 53716,
    "latitude": -10.173266,
    "longitude": 123.598793,
    "phone": "081339533174"
  },
  {
    "outlet_sap_id": "AV05",
    "name": "KF.Kelimutu",
    "department_id": 3122,
    "store_type": "BASIC_HEALTH",
    "operational_date": "2014-01-01",
    "address": "Jl. Kelimutu Ende",
    "postcode_id": 52988,
    "latitude": -8.844872,
    "longitude": 121.657779,
    "phone": "082144173876"
  },
  {
    "outlet_sap_id": "AV14",
    "name": "KF.0810",
    "department_id": 3122,
    "store_type": "BASIC_HEALTH",
    "operational_date": "2016-12-01",
    "address": "Jl. Eltari No.KM 3, RT.017/RW.005,",
    "postcode_id": 52975,
    "latitude": -9.463465,
    "longitude": 124.480256,
    "phone": "081110678525"
  },
  {
    "outlet_sap_id": "AV15",
    "name": "KF. CENTRAL ATAMBUA",
    "department_id": 3122,
    "store_type": "BASIC_HEALTH",
    "operational_date": "2018-02-01",
    "address": "Jl. Soekarno No.2",
    "postcode_id": 53512,
    "latitude": -9.100566,
    "longitude": 124.896392,
    "phone": "081110678533"
  },
  {
    "outlet_sap_id": "AV18",
    "name": "KF Ruteng",
    "department_id": 3122,
    "store_type": "MEDICAL",
    "operational_date": "2022-06-10",
    "address": "Jl. Slamet Riyadi, Langke Rembong,",
    "postcode_id": 52271,
    "latitude": -8.612875267,
    "longitude": 120.4663163,
    "phone": "081936603976"
  },
  {
    "outlet_sap_id": "AV20",
    "name": "KF Express Labuan Bajo",
    "department_id": 3122,
    "store_type": "MEDICAL",
    "operational_date": "2019-09-25",
    "address": "Jl. Soekarno Hatta, Labuan Bajo",
    "postcode_id": 52217,
    "latitude": -8.4908768,
    "longitude": 119.8736987,
    "phone": "081110678526"
  },
  {
    "outlet_sap_id": "AW0111",
    "name": "PPO Klinik KF Kotabumi",
    "department_id": 3123,
    "store_type": "BASIC_HEALTH",
    "operational_date": "2019-01-01",
    "address": "Jl. Raya Candimas Samping Gang Simp",
    "postcode_id": 21605,
    "latitude": -4.85283606,
    "longitude": 104.9193519,
    "phone": "021"
  },
  {
    "outlet_sap_id": "AW08",
    "name": "KF 553",
    "department_id": 3123,
    "store_type": "BASIC_HEALTH",
    "operational_date": "2014-03-31",
    "address": "Jl. AH. Nasution  No. 1 Kel. Imopuro Kec. Metro Pusat, Kota Metro",
    "postcode_id": 22276,
    "latitude": -5.113852,
    "longitude": 105.306419,
    "phone": "08154073377"
  },
  {
    "outlet_sap_id": "AW1111",
    "name": "PPO Klinik KF 0256",
    "department_id": 3123,
    "store_type": "MEDICAL",
    "operational_date": "2019-01-01",
    "address": "Jl. Arif Rahman Hakim TR 2 Way Hali",
    "postcode_id": 22285,
    "latitude": -5.286928,
    "longitude": 105.190994,
    "phone": "021"
  },
  {
    "outlet_sap_id": "AW17",
    "name": "KF Kedaton",
    "department_id": 3123,
    "store_type": "BASIC_HEALTH",
    "operational_date": "1010-01-01",
    "address": "Jl. Teuku Umar No.15A-B, Sidodadi",
    "postcode_id": 23065,
    "latitude": -5.3961357,
    "longitude": 105.2614717,
    "phone": "081540333325"
  },
  {
    "outlet_sap_id": "AX05",
    "name": "KF Gelora",
    "department_id": 3124,
    "store_type": "MEDICAL",
    "operational_date": "2006-01-01",
    "address": "Jl. Pettanarajeng 5",
    "postcode_id": 67155,
    "latitude": -4.015032,
    "longitude": 119.622223,
    "phone": "08114147234"
  },
  {
    "outlet_sap_id": "AX09",
    "name": "KF Belopa",
    "department_id": 3124,
    "store_type": "MEDICAL",
    "operational_date": "2003-01-01",
    "address": "Jl. Sungai Pareman No.70, Kel Sabe,",
    "postcode_id": 66188,
    "latitude": -3.380129034,
    "longitude": 120.3679478,
    "phone": "021"
  },
  {
    "outlet_sap_id": "AX15",
    "name": "KF Telkomas",
    "department_id": 3124,
    "store_type": "BASIC_HEALTH",
    "operational_date": "2014-10-01",
    "address": "Jl. Perintis Kemerdekaan KM 13, Ruko Telkomas",
    "postcode_id": 1,
    "latitude": -5.12233,
    "longitude": 119.50745,
    "phone": "08114181345"
  },
  {
    "outlet_sap_id": "AX22",
    "name": "KF. Urimesing Ambon",
    "department_id": 3124,
    "store_type": "NONE",
    "operational_date": "2016-10-15",
    "address": "Jl. Diponegoro no.66",
    "postcode_id": 72531,
    "latitude": -3.700658,
    "longitude": 128.182242,
    "phone": "082197621522"
  },
  {
    "outlet_sap_id": "AX37",
    "name": "KF Rolling Hills",
    "department_id": 3124,
    "store_type": "MEDICAL",
    "operational_date": "2018-06-01",
    "address": "Jl. Metro Tanjung Bunga Ruko Rolling Hills No. 63",
    "postcode_id": 67536,
    "latitude": -5.9532,
    "longitude": 119.23326,
    "phone": 628
  },
  {
    "outlet_sap_id": "AX40",
    "name": "KF Palopo",
    "department_id": 3124,
    "store_type": "HEALTH_AND_CARE",
    "operational_date": "2018-08-01",
    "address": "Jl. Kelapa",
    "postcode_id": 66297,
    "latitude": -3.00382,
    "longitude": 120.196528,
    "phone": "081110678183"
  },
  {
    "outlet_sap_id": "AX41",
    "name": "Klinik Mandiri KF Bantaeng",
    "department_id": 3124,
    "store_type": "",
    "operational_date": "2018-01-01",
    "address": "-",
    "postcode_id": 67066,
    "latitude": 0.2,
    "longitude": 0.1,
    "phone": ""
  },
  {
    "outlet_sap_id": "AX49",
    "name": "KF Takalar",
    "department_id": 3124,
    "store_type": "BASIC_HEALTH",
    "operational_date": "2020-07-01",
    "address": "jln kemakmuran no 39, des/kec pattallassang kab Takalar.",
    "postcode_id": 66598,
    "latitude": -5.431082,
    "longitude": 119.438666,
    "phone": "08114425111"
  },
  {
    "outlet_sap_id": "AX50",
    "name": "KF Express Bandara Sultan Hasanuddin",
    "department_id": 3124,
    "store_type": "NONE",
    "operational_date": "2022-04-15",
    "address": "Jalan Airport No.1, Kec. Makassar, Kabupaten Maros, Sulawesi Selatan 90552",
    "postcode_id": 66482,
    "latitude": -5.077747,
    "longitude": 119.5494844,
    "phone": "082255842805"
  },
  {
    "outlet_sap_id": "AY03",
    "name": "KF 0075 Mojoroto",
    "department_id": 3125,
    "store_type": "BASIC_HEALTH",
    "operational_date": "2003-01-01",
    "address": "Jl. Jaksa Agung Suprapto no. 25, Mojoroto,Kota Kediri, Jawa Timur",
    "postcode_id": 41608,
    "latitude": -7.807152,
    "longitude": 112.004412,
    "phone": "081110678267"
  },
  {
    "outlet_sap_id": "AY11",
    "name": "KF SMAN II PARE",
    "department_id": 3125,
    "store_type": "BASIC_HEALTH",
    "operational_date": "2004-01-01",
    "address": "Jl. Pahlawan Kusuma Bangsa No. 28,",
    "postcode_id": 45434,
    "latitude": -7.759489,
    "longitude": 112.176771,
    "phone": "08113279413"
  },
  {
    "outlet_sap_id": "AY18",
    "name": "KF Tulungagung 2",
    "department_id": 3125,
    "store_type": "BASIC_HEALTH",
    "operational_date": "2014-10-01",
    "address": "Jl. Pahlawan No. 35, Kedungwaru,Kab. Tulungagung, Jawa Timur, - 66224",
    "postcode_id": 45772,
    "latitude": -8.053238,
    "longitude": 111.908122,
    "phone": "08113279425"
  },
  {
    "outlet_sap_id": "AY20",
    "name": "KF Agus Salim",
    "department_id": 3125,
    "store_type": "MEDICAL",
    "operational_date": "2017-02-01",
    "address": "Jl. KH. Agus Salim No. 32, Bandar, Mojoroto,Kota Kediri, Jawa Timur, - 64122",
    "postcode_id": 41608,
    "latitude": -7.8274345,
    "longitude": 112.0030552,
    "phone": "08113279435"
  },
  {
    "outlet_sap_id": "AY28",
    "name": "KF VETERAN MALANG",
    "department_id": 3125,
    "store_type": "MEDICAL",
    "operational_date": "2018-08-02",
    "address": "Jl. Veteran No.172, Plosokerep, Kec. Sananwetan, Kota Blitar, Jawa Timur",
    "postcode_id": 43560,
    "latitude": -8.1087085,
    "longitude": 112.1674467,
    "phone": "081133341315"
  },
  {
    "outlet_sap_id": "AY31",
    "name": "KF Kalpataru",
    "department_id": 3125,
    "store_type": "NONE",
    "operational_date": "2018-10-01",
    "address": "Jl. Kalpataru No. 92 Kota Malang",
    "postcode_id": 40275,
    "latitude": 8.03,
    "longitude": 8.03,
    "phone": "082117634592"
  },
  {
    "outlet_sap_id": "AY36",
    "name": "KF Kepuharjo",
    "department_id": 3125,
    "store_type": "MEDICAL",
    "operational_date": "2023-09-09",
    "address": "Jl. Raya Ngijo Karangploso No.27, Krajan",
    "postcode_id": 40255,
    "latitude": -7.899930477,
    "longitude": 112.6030884,
    "phone": "03415060109"
  },
  {
    "outlet_sap_id": "AZ07",
    "name": "KF. Kartini",
    "department_id": 3126,
    "store_type": "BASIC_HEALTH",
    "operational_date": "2016-12-01",
    "address": "Jl. HB. Jasin Kel. Limba U2 Kec. Kota Selatan",
    "postcode_id": 71507,
    "latitude": 0.5435864,
    "longitude": 123.0576789,
    "phone": "085395602297"
  },
  {
    "outlet_sap_id": "AZ10",
    "name": "KF PEL RSUD ALOEI SABOE",
    "department_id": 3126,
    "store_type": "MEDICAL",
    "operational_date": "2018-08-23",
    "address": "Jl. Prof. DR Aloei Saboe Kel. Wongkaditi, Kec. Kota Utara",
    "postcode_id": 71902,
    "latitude": 0.55517734,
    "longitude": 123.0839755,
    "phone": "082195697315"
  },
  {
    "outlet_sap_id": "AZ14",
    "name": "KF Pel RSUD Dunda",
    "department_id": 3126,
    "store_type": "BASIC_HEALTH",
    "operational_date": "2023-01-04",
    "address": "Jl. Ahmad A Wahab Kel Hunggaluwa",
    "postcode_id": 71325,
    "latitude": 0.623846,
    "longitude": 122.976757,
    "phone": "081236954789"
  },
  {
    "outlet_sap_id": "BA04",
    "name": "KF 290 Martadinata",
    "department_id": 3127,
    "store_type": "SUPER_STORE",
    "operational_date": "2004-01-01",
    "address": "Jl. R.E Martadinata No.35, Dendengan Luar",
    "postcode_id": 62584,
    "latitude": 1.487098,
    "longitude": 124.856691,
    "phone": "081343865990"
  },
  {
    "outlet_sap_id": "BA08",
    "name": "KF.0396 Tuminting",
    "department_id": 3127,
    "store_type": "MEDICAL",
    "operational_date": "2011-01-01",
    "address": "Jl. Hasanuddin No. 137",
    "postcode_id": 62669,
    "latitude": 1.506677,
    "longitude": 124.845966,
    "phone": "082196656448"
  },
  {
    "outlet_sap_id": "BA10",
    "name": "KF.Pel005 RSUP Malayang Kandau",
    "department_id": 3127,
    "store_type": "MEDICAL",
    "operational_date": "2003-01-01",
    "address": "Jl. Wolter Monginsidi",
    "postcode_id": 63081,
    "latitude": 1.453628,
    "longitude": 124.808188,
    "phone": "082194754501"
  },
  {
    "outlet_sap_id": "BA27",
    "name": "KF MALALAYANG",
    "department_id": 3127,
    "store_type": "BASIC_HEALTH",
    "operational_date": "2016-04-16",
    "address": "Jl.  Raya TANAWANGKO, MALALAYANG I",
    "postcode_id": 63081,
    "latitude": 1.456573,
    "longitude": 124.808925,
    "phone": "082346941400"
  },
  {
    "outlet_sap_id": "BA31",
    "name": "KF Talaud",
    "department_id": 3127,
    "store_type": "BASIC_HEALTH",
    "operational_date": "2022-12-20",
    "address": "Jalan Raya Mala- melonguane, kec. Melonguane, Kab. Kepulauan Talaud (Pulau karakelong)",
    "postcode_id": 62491,
    "latitude": 3.999279,
    "longitude": 126.689882,
    "phone": "081343846913"
  },
  {
    "outlet_sap_id": "BA3111",
    "name": "PPO KF RSUD Talaud",
    "department_id": 3127,
    "store_type": "NONE",
    "operational_date": "1010-01-01",
    "address": "Jl. Raya Mala Kecamatan Melengwane",
    "postcode_id": 62491,
    "latitude": 4.006106887,
    "longitude": 126.7079407,
    "phone": "082291149476"
  },
  {
    "outlet_sap_id": "BA34",
    "name": "KF PEL POBUNDAYAN",
    "department_id": 3127,
    "store_type": "MEDICAL",
    "operational_date": "2017-03-01",
    "address": "Jl.Ahmad Yani Kotamobago",
    "postcode_id": 63456,
    "latitude": 0.716316,
    "longitude": 124.306414,
    "phone": "081329595763"
  },
  {
    "outlet_sap_id": "BA36",
    "name": "KF  TAHUNA",
    "department_id": 3127,
    "store_type": "MEDICAL",
    "operational_date": "2017-08-17",
    "address": "Jl. Samratulangi",
    "postcode_id": 63665,
    "latitude": 3.612155,
    "longitude": 125.491851,
    "phone": "081229667266"
  },
  {
    "outlet_sap_id": "BA3611",
    "name": "PPO KF RSUD Liunkendage",
    "department_id": 3127,
    "store_type": "NONE",
    "operational_date": "1010-01-01",
    "address": "JF5J+889, Apeng Sembeka, Kec. Tahuna",
    "postcode_id": 62323,
    "latitude": 3.607724,
    "longitude": 125.480585,
    "phone": "082165624743"
  },
  {
    "outlet_sap_id": "BA41",
    "name": "KF 1027 Bitung Tengah",
    "department_id": 3127,
    "store_type": "NONE",
    "operational_date": "2018-08-01",
    "address": "Jl. Sam Ratulangi No.23, Pakadoodan",
    "postcode_id": 62455,
    "latitude": 1.445167,
    "longitude": 125.181178,
    "phone": "08114336499"
  },
  {
    "outlet_sap_id": "BA4511",
    "name": "PPO KF RSUD Noongan",
    "department_id": 3127,
    "store_type": "NONE",
    "operational_date": "1010-01-01",
    "address": "Jl. Marintek",
    "postcode_id": 62317,
    "latitude": 1.123137,
    "longitude": 124.806944,
    "phone": "082189677579"
  },
  {
    "outlet_sap_id": "BB20",
    "name": "KF Weda",
    "department_id": 3128,
    "store_type": "MEDICAL",
    "operational_date": "2022-11-08",
    "address": "Jl. Dusun II, Desa Fidi Jaya",
    "postcode_id": 73887,
    "latitude": 0.3343889,
    "longitude": 127.8796317,
    "phone": "082121113400"
  },
  {
    "outlet_sap_id": "BB21",
    "name": "KF Bacan 2",
    "department_id": 3128,
    "store_type": "MEDICAL",
    "operational_date": "2022-09-06",
    "address": "Jl. Oesman Syah, Labuha",
    "postcode_id": 73784,
    "latitude": -0.634946275,
    "longitude": 127.4844801,
    "phone": "081143104411"
  },
  {
    "outlet_sap_id": "BC0211",
    "name": "PPO KF RS Unram",
    "department_id": 3129,
    "store_type": "MEDICAL",
    "operational_date": "1010-01-01",
    "address": "-",
    "postcode_id": 51624,
    "latitude": 0,
    "longitude": 0,
    "phone": "081110678289"
  },
  {
    "outlet_sap_id": "BC1501",
    "name": "KLINIK SUMBAWA II",
    "department_id": 3129,
    "store_type": "",
    "operational_date": "1010-01-01",
    "address": "Jln. Hasanuddin No. 32 Sumbawa Besar, SUMBAWA,Kab. Sumbawa, Nusa Tenggara Barat",
    "postcode_id": 51826,
    "latitude": 0,
    "longitude": 0,
    "phone": "021"
  },
  {
    "outlet_sap_id": "BC19",
    "name": "KLINIK MANDIRI KF ALAS.",
    "department_id": 3129,
    "store_type": "",
    "operational_date": "1010-01-01",
    "address": "JL. PENDIDIKAN NO.",
    "postcode_id": 51336,
    "latitude": 0,
    "longitude": 0,
    "phone": "03729293089"
  },
  {
    "outlet_sap_id": "BC22",
    "name": "KF Dompu",
    "department_id": 3129,
    "store_type": "BASIC_HEALTH",
    "operational_date": "2023-01-01",
    "address": "Jl. Jendral Sudirman No.27",
    "postcode_id": 50993,
    "latitude": -8.539521355,
    "longitude": 118.4594215,
    "phone": "081337628355"
  },
  {
    "outlet_sap_id": "BC23",
    "name": "KF Aikmel",
    "department_id": 3129,
    "store_type": "BASIC_HEALTH",
    "operational_date": "1010-01-01",
    "address": "JL. Koperasi No. 100 Aikmel",
    "postcode_id": 50976,
    "latitude": -8.5695403,
    "longitude": 116.5265024,
    "phone": "082340599930"
  },
  {
    "outlet_sap_id": "BD0111",
    "name": "KF. 27 (M3/ALKES)",
    "department_id": 3130,
    "store_type": "NONE",
    "operational_date": "2003-01-01",
    "address": "Jl. Palang Merah No.32",
    "postcode_id": 8426,
    "latitude": 3.5845952,
    "longitude": 3.5845952,
    "phone": "08116533148"
  },
  {
    "outlet_sap_id": "BD0412",
    "name": "PPO2  KF. 0030",
    "department_id": 3130,
    "store_type": "CHILD",
    "operational_date": "2003-01-01",
    "address": "Jln. Let.Jend.Soeprapto No. 56",
    "postcode_id": 6859,
    "latitude": 0,
    "longitude": 0,
    "phone": 0
  },
  {
    "outlet_sap_id": "BD14",
    "name": "KF.Pel041 RS Umum Kota Tebing",
    "department_id": 3130,
    "store_type": "",
    "operational_date": "2003-01-01",
    "address": "Jln. Kumpul Pane NO.226",
    "postcode_id": 6859,
    "latitude": 0,
    "longitude": 0,
    "phone": 0
  },
  {
    "outlet_sap_id": "BD16",
    "name": "KF 84 Tanjungbalai",
    "department_id": 3130,
    "store_type": "BASIC_HEALTH",
    "operational_date": "2003-01-01",
    "address": "Jl. Sudirman No. 25 B Kel. Karya",
    "postcode_id": 12044,
    "latitude": 2.9641164,
    "longitude": 99.8038151,
    "phone": "08116533211"
  },
  {
    "outlet_sap_id": "BD17",
    "name": "KF.0542 Percut",
    "department_id": 3130,
    "store_type": "BASIC_HEALTH",
    "operational_date": "2014-07-01",
    "address": "Jl. Medan Batang Kuis Psr 9 Percut Sei Tuan",
    "postcode_id": 6813,
    "latitude": 3.606347,
    "longitude": 98.757819,
    "phone": "081110678280"
  },
  {
    "outlet_sap_id": "BD23",
    "name": "KF.M YAMIN",
    "department_id": 3130,
    "store_type": "",
    "operational_date": "2016-01-01",
    "address": "Jln. M Yamin No.282 B Medan",
    "postcode_id": 9605,
    "latitude": 0,
    "longitude": 0,
    "phone": 0
  },
  {
    "outlet_sap_id": "BD31",
    "name": "Apotek KF Lubuk Pakam",
    "department_id": 3130,
    "store_type": "MEDICAL",
    "operational_date": "2018-03-18",
    "address": "Jl. Imam Bonjol No. 47, Kel. Tanjung Garbus Satu",
    "postcode_id": 11952,
    "latitude": 3.56489,
    "longitude": 98.873135,
    "phone": "081110678208"
  },
  {
    "outlet_sap_id": "BD3411",
    "name": "PPO KF Bandara Kualanamu",
    "department_id": 3130,
    "store_type": "",
    "operational_date": "2020-01-07",
    "address": "medan",
    "postcode_id": 25045,
    "latitude": -6.131,
    "longitude": -6.131,
    "phone": "021"
  },
  {
    "outlet_sap_id": "BD3611",
    "name": "KF HM Joni (PPO Basri)",
    "department_id": 3130,
    "store_type": "BASIC_HEALTH",
    "operational_date": "2021-01-01",
    "address": "Jl. Kapt. Jumhana No. 39/440",
    "postcode_id": 9607,
    "latitude": 3.5866062,
    "longitude": 98.7019138,
    "phone": "08116533186"
  },
  {
    "outlet_sap_id": "BD38",
    "name": "KF Setia Budi 2",
    "department_id": 3130,
    "store_type": "BASIC_HEALTH",
    "operational_date": "2020-04-01",
    "address": "Jl. Setia Budi No.96, Kel. Tanjung",
    "postcode_id": 7116,
    "latitude": 3.5602,
    "longitude": 98.6367,
    "phone": "081110678211"
  },
  {
    "outlet_sap_id": "BD40",
    "name": "KF Padang Bulan",
    "department_id": 3130,
    "store_type": "MEDICAL",
    "operational_date": "2024-07-07",
    "address": "Jl. Jamin Ginting No. 406-407",
    "postcode_id": 7368,
    "latitude": 3.55643,
    "longitude": 98.66192,
    "phone": "08116533308"
  },
  {
    "outlet_sap_id": "BD41",
    "name": "KF Sibolga",
    "department_id": 3130,
    "store_type": "MEDICAL",
    "operational_date": "2024-09-01",
    "address": "Jl. Sisingamangaraja, Kel. Aek Mani",
    "postcode_id": 6501,
    "latitude": 1.729912,
    "longitude": 98.793664,
    "phone": "08116533075"
  },
  {
    "outlet_sap_id": "BE0502",
    "name": "Optik KF 386 Fortuna",
    "department_id": 3131,
    "store_type": "NEW",
    "operational_date": "2020-08-01",
    "address": "Jl. S Parman No. 171 B",
    "postcode_id": 12425,
    "latitude": 0,
    "longitude": 0,
    "phone": 0
  },
  {
    "outlet_sap_id": "BE06",
    "name": "Apotek Kimia Farma RSUP Dr. M. Djamil Pa",
    "department_id": 3131,
    "store_type": "BASIC_HEALTH",
    "operational_date": "2003-01-01",
    "address": "Jl. Perintis Kemerdekaan No. 24",
    "postcode_id": 13241,
    "latitude": -1.34563235,
    "longitude": -1.34,
    "phone": "07514788361"
  },
  {
    "outlet_sap_id": "BE16",
    "name": "KF SOETA",
    "department_id": 3131,
    "store_type": "MEDICAL",
    "operational_date": "2016-08-01",
    "address": "Jl. Soekarno hatta payakumbuh",
    "postcode_id": 12484,
    "latitude": -0.2325545,
    "longitude": 100.6203113,
    "phone": "081110678551"
  },
  {
    "outlet_sap_id": "BE20",
    "name": "KF Cengkeh",
    "department_id": 3131,
    "store_type": "BASIC_HEALTH",
    "operational_date": "2017-04-04",
    "address": "Jl.Raya Cengkeh No.4 Padang",
    "postcode_id": 12595,
    "latitude": -0.953364771,
    "longitude": 100.4134281,
    "phone": "081398353313"
  },
  {
    "outlet_sap_id": "BE22",
    "name": "KF LAPAI",
    "department_id": 3131,
    "store_type": "BASIC_HEALTH",
    "operational_date": "2019-01-03",
    "address": "Jl. Jhoni Anwar No.5, Kp. Lapai",
    "postcode_id": 12729,
    "latitude": -0.902854348,
    "longitude": 100.3607955,
    "phone": "083181180805"
  },
  {
    "outlet_sap_id": "BE25",
    "name": "KF Zam Zam",
    "department_id": 3131,
    "store_type": "BASIC_HEALTH",
    "operational_date": "1010-01-01",
    "address": "Jl. dr. Abdul Rivai No. 23",
    "postcode_id": 1,
    "latitude": -0.305085706,
    "longitude": 100.3624201,
    "phone": "085322221251"
  },
  {
    "outlet_sap_id": "BF09",
    "name": "KLINIK KIMIA FARMA KUMAI",
    "department_id": 3132,
    "store_type": "",
    "operational_date": "1010-01-01",
    "address": "Jl. Masjid RT. 03 RW. 01",
    "postcode_id": 57344,
    "latitude": 0,
    "longitude": 0,
    "phone": "05322075288"
  },
  {
    "outlet_sap_id": "BF11",
    "name": "Apotek KF. 971",
    "department_id": 3132,
    "store_type": "MEDICAL",
    "operational_date": "2017-10-01",
    "address": "Jl. Tjilik Riwut Palangkaraya",
    "postcode_id": 57886,
    "latitude": -2.200773,
    "longitude": 113.912284,
    "phone": "081110678093"
  },
  {
    "outlet_sap_id": "BG02",
    "name": "KF.0208",
    "department_id": 3133,
    "store_type": "",
    "operational_date": "2006-01-01",
    "address": "jln. Sultan agung Rt.10",
    "postcode_id": 16711,
    "latitude": 0,
    "longitude": 0,
    "phone": 0
  },
  {
    "outlet_sap_id": "BG08",
    "name": "KF. Muara Bungo",
    "department_id": 3133,
    "store_type": "HEALTH_AND_CARE",
    "operational_date": "2017-03-01",
    "address": "Jl. Muhammad Yamin - Muara Bungo",
    "postcode_id": 15568,
    "latitude": -1.484239,
    "longitude": 102.116665,
    "phone": "082281818491"
  },
  {
    "outlet_sap_id": "BG10",
    "name": "KF SIMPANG RIMBO",
    "department_id": 3133,
    "store_type": "",
    "operational_date": "2018-12-22",
    "address": "Jl. Patimura Rt02",
    "postcode_id": 1,
    "latitude": -1.619241,
    "longitude": 103.557187,
    "phone": "082289390599"
  },
  {
    "outlet_sap_id": "BG15",
    "name": "KF Sudirman Jambi",
    "department_id": 3133,
    "store_type": "BASIC_HEALTH",
    "operational_date": "2023-07-01",
    "address": "Jl. Jenderal Sudirman No. 13 RT 4 Jelutung  Kota Jambi",
    "postcode_id": 16711,
    "latitude": -1.6026944,
    "longitude": 103.6187277,
    "phone": "081110678575"
  },
  {
    "outlet_sap_id": "BG16",
    "name": "KF Pasir Putih",
    "department_id": 3133,
    "store_type": "BASIC_HEALTH",
    "operational_date": "1010-01-01",
    "address": "Jl. RB. Siagian No. 16 RT 09",
    "postcode_id": 16935,
    "latitude": -1.6223659,
    "longitude": 103.6401151,
    "phone": "082181461006"
  },
  {
    "outlet_sap_id": "BH24",
    "name": "KF Sultan M. Mansyur",
    "department_id": 3134,
    "store_type": "BASIC_HEALTH",
    "operational_date": "2023-06-01",
    "address": "Jl. Sultan M. Mansyur Komplek Green Forest Residence No.780-814",
    "postcode_id": 17266,
    "latitude": -3.0028685,
    "longitude": 104.7342466,
    "phone": "08117124894"
  },
  {
    "outlet_sap_id": "BH36",
    "name": "KF Baturaja",
    "department_id": 3134,
    "store_type": "MEDICAL",
    "operational_date": "1010-01-01",
    "address": "Jl.Jenderal A.Yani No.319 Kemalaraj",
    "postcode_id": 17116,
    "latitude": -4.1250647,
    "longitude": 104.1691456,
    "phone": "07357455029"
  },
  {
    "outlet_sap_id": "BI17",
    "name": "KF Kamonji",
    "department_id": 3135,
    "store_type": "BASIC_HEALTH",
    "operational_date": "1010-01-01",
    "address": "Jl. Imam Bonjol No. 46 A,Kel. Kamon",
    "postcode_id": 64213,
    "latitude": -0.895393,
    "longitude": 119.857525,
    "phone": "082194485854"
  },
  {
    "outlet_sap_id": "BI18",
    "name": "KF Tadulako",
    "department_id": 3135,
    "store_type": "NONE",
    "operational_date": "1010-01-01",
    "address": "Jl. Soekarno Hatta, Kel. Talise,",
    "postcode_id": 64801,
    "latitude": -0.850079,
    "longitude": 119.89184,
    "phone": 0
  },
  {
    "outlet_sap_id": "BJ03",
    "name": "KF.0229",
    "department_id": 3136,
    "store_type": "BASIC_HEALTH",
    "operational_date": "2003-01-01",
    "address": "Jl. Sudirman No. 724",
    "postcode_id": 15164,
    "latitude": 0.498962,
    "longitude": 101.454232,
    "phone": "081110678173"
  },
  {
    "outlet_sap_id": "BJ06",
    "name": "KF.0518 Nangka",
    "department_id": 3136,
    "store_type": "MEDICAL",
    "operational_date": "2014-01-01",
    "address": "Jl. Nangka No.59",
    "postcode_id": 15161,
    "latitude": 0.503121,
    "longitude": 101.42851,
    "phone": "081110678252"
  },
  {
    "outlet_sap_id": "BJ07",
    "name": "KF.0614 Harapan",
    "department_id": 3136,
    "store_type": "NONE",
    "operational_date": "2014-12-01",
    "address": "Jl. H. Imam Munandar No. 227 RT.01/11 Kel. Tangkerang Kec. Bukit Raya",
    "postcode_id": 15166,
    "latitude": 0.499915,
    "longitude": 101.467152,
    "phone": "081219989149"
  },
  {
    "outlet_sap_id": "BJ11",
    "name": "KF.0692 Bangkinang",
    "department_id": 3136,
    "store_type": "BASIC_HEALTH",
    "operational_date": "2015-07-01",
    "address": "Jl. Prof.H.M.Yamin Sh. No.1-2 Bangkinang",
    "postcode_id": 13643,
    "latitude": 0.34648,
    "longitude": 101.026623,
    "phone": "082284619022"
  },
  {
    "outlet_sap_id": "BJ17",
    "name": "Klinik Mandiri KF Hemodialisa RS Lancang Kuning",
    "department_id": 3136,
    "store_type": "",
    "operational_date": "2018-01-01",
    "address": "Jl. Ronggo Warsito Ujung No. 5-A Kel. Sukamaju, Kec. Sail Pekanbaru",
    "postcode_id": 13830,
    "latitude": 0,
    "longitude": 0,
    "phone": "021"
  },
  {
    "outlet_sap_id": "BJ18",
    "name": "KF 1105 Paus",
    "department_id": 3136,
    "store_type": "BASIC_HEALTH",
    "operational_date": "2018-10-01",
    "address": "Jl. Paus No.55, Rt.003/Rw.007, Tengkerang",
    "postcode_id": 14257,
    "latitude": 0.497237199,
    "longitude": 101.4390103,
    "phone": "081110678165"
  },
  {
    "outlet_sap_id": "BJ20",
    "name": "Apotek KF Bukit Barisan",
    "department_id": 3136,
    "store_type": "NONE",
    "operational_date": "2019-02-04",
    "address": "Jl. Bukit Barisan No.7A, Kel. Tangkerang Timur, Kec. Tenayan Raya, Pekanbaru",
    "postcode_id": 15165,
    "latitude": 0.492092,
    "longitude": 101.48586,
    "phone": "081110678152"
  },
  {
    "outlet_sap_id": "BJ24",
    "name": "KF Sudirman Dumai",
    "department_id": 3136,
    "store_type": "MEDICAL",
    "operational_date": "2023-07-07",
    "address": "Jl. Jend. Sudirman No.168, Tlk. Binjai, Kec. Dumai Tim., Kota Dumai, Riau 28826",
    "postcode_id": 13780,
    "latitude": 1.668781,
    "longitude": 101.448043,
    "phone": "08117606038"
  },
  {
    "outlet_sap_id": "BK0111",
    "name": "PPO Klinik KF Danau Sentarum",
    "department_id": 3137,
    "store_type": "MEDICAL",
    "operational_date": "2021-01-02",
    "address": "Jl. Danau Sentarum No. 1 samping Gg. Waris Sui bangkong Pontianak",
    "postcode_id": 57150,
    "latitude": -0.044858799,
    "longitude": 109.310591,
    "phone": "05638175874"
  },
  {
    "outlet_sap_id": "BK0211",
    "name": "PPO Klinik KF Sintang",
    "department_id": 3137,
    "store_type": "NONE",
    "operational_date": "2021-01-02",
    "address": "Jl. YC Oevang Oeray RT.29/03 Baning Kota Kec. Sintang Kab. Sintang",
    "postcode_id": 57030,
    "latitude": -0.06342,
    "longitude": 111.48698,
    "phone": "05652030018"
  },
  {
    "outlet_sap_id": "BK05",
    "name": "KF 525 SSA",
    "department_id": 3137,
    "store_type": "BASIC_HEALTH",
    "operational_date": "2018-03-14",
    "address": "Jl. M Yamin No. A7 Pontianak",
    "postcode_id": 57150,
    "latitude": 0.30957,
    "longitude": 109.24789,
    "phone": "089525890150"
  },
  {
    "outlet_sap_id": "BK0512",
    "name": "PPO Klinik KF Landak",
    "department_id": 3137,
    "store_type": "NONE",
    "operational_date": "2021-01-02",
    "address": "Jl. Agus Salim No.31 Ketapang",
    "postcode_id": 55253,
    "latitude": -0.38046,
    "longitude": 109.95265,
    "phone": "05632020737"
  },
  {
    "outlet_sap_id": "BK1012",
    "name": "PPO Klinik KF Ketapang",
    "department_id": 3137,
    "store_type": "MEDICAL",
    "operational_date": "2021-01-02",
    "address": "Jl. Agus Salim No.31 Ketapang",
    "postcode_id": 55682,
    "latitude": -1.835323,
    "longitude": 109.973836,
    "phone": "05343035521"
  },
  {
    "outlet_sap_id": "BK13",
    "name": "KF JERUJU",
    "department_id": 3137,
    "store_type": "NONE",
    "operational_date": "2018-09-01",
    "address": "Jl. Kom Yos Sudarso Ruko No.3 Pontianak",
    "postcode_id": 56601,
    "latitude": -0.007571,
    "longitude": 109.297855,
    "phone": "081250142090"
  },
  {
    "outlet_sap_id": "BK20",
    "name": "KF Sintang",
    "department_id": 3137,
    "store_type": "NONE",
    "operational_date": "1010-01-01",
    "address": "JL. Lintas Melawi Rt.03/01",
    "postcode_id": 57030,
    "latitude": -0.06476,
    "longitude": 111.48899,
    "phone": "081345847887"
  },
  {
    "outlet_sap_id": "BK21",
    "name": "KF Yos Sudarso Singkawang",
    "department_id": 3137,
    "store_type": "NONE",
    "operational_date": "1010-01-01",
    "address": "Jl. Yos Sudarso No.40A",
    "postcode_id": 57151,
    "latitude": 0.912185,
    "longitude": 108.986736,
    "phone": "089614839473"
  },
  {
    "outlet_sap_id": "BK22",
    "name": "KF Delta Pawan",
    "department_id": 3137,
    "store_type": "NONE",
    "operational_date": "1010-01-01",
    "address": "JL. R. Suprapto No. 67",
    "postcode_id": 55682,
    "latitude": 1.8400936,
    "longitude": 109.9689465,
    "phone": "021"
  },
  {
    "outlet_sap_id": "BL0112",
    "name": "APOTEK LOKET LT 2 TUNAI",
    "department_id": 3138,
    "store_type": "MEDICAL",
    "operational_date": "2003-01-01",
    "address": "Jl. Diponegoro No. 71",
    "postcode_id": 25034,
    "latitude": -6.195295532,
    "longitude": 106.8477794,
    "phone": 123
  },
  {
    "outlet_sap_id": "BL0114",
    "name": "KF SAT  FARMASI LT 2",
    "department_id": 3138,
    "store_type": "MEDICAL",
    "operational_date": "2003-01-01",
    "address": "Jl. Diponegoro No. 71",
    "postcode_id": 25034,
    "latitude": 0,
    "longitude": 0,
    "phone": 123
  },
  {
    "outlet_sap_id": "BL0115",
    "name": "KF SAT FARMASI LT 3",
    "department_id": 3138,
    "store_type": "MEDICAL",
    "operational_date": "2003-01-01",
    "address": "Jl. Diponegoro No. 71",
    "postcode_id": 25034,
    "latitude": 0,
    "longitude": 0,
    "phone": 123
  },
  {
    "outlet_sap_id": "BL0117",
    "name": "APOTEK LOKET LT 1",
    "department_id": 3138,
    "store_type": "MEDICAL",
    "operational_date": "2003-01-01",
    "address": "Jl. Diponegoro No. 71",
    "postcode_id": 25209,
    "latitude": 1.35,
    "longitude": -160,
    "phone": "08128737946"
  },
  {
    "outlet_sap_id": "BM01",
    "name": "KF M. Yamin (KF 105)",
    "department_id": 3139,
    "store_type": "HEALTH_AND_CARE",
    "operational_date": "2003-01-01",
    "address": "Jl. M Yamin Ruko M Yamin Square No.6, Kel. Gunung Kelua, Samarinda Ulu, Kota Samarinda, Kalimantan Timur 75123",
    "postcode_id": 61011,
    "latitude": -0.120958483,
    "longitude": 117.1271692,
    "phone": "08115583901"
  },
  {
    "outlet_sap_id": "BM0112",
    "name": "PPO Klinik KF Sutomo",
    "department_id": 3139,
    "store_type": "BASIC_HEALTH",
    "operational_date": "2019-01-01",
    "address": "Jl. Dr Sutomo No.52, Samarinda Ulu,",
    "postcode_id": 61011,
    "latitude": 0,
    "longitude": 0,
    "phone": "0541"
  },
  {
    "outlet_sap_id": "BM03",
    "name": "KF Agus Salim (KF 138)",
    "department_id": 3139,
    "store_type": "SUPER_STORE",
    "operational_date": "2003-01-01",
    "address": "Jl. KH.Agus Salim No. 30",
    "postcode_id": 61577,
    "latitude": -0.494367,
    "longitude": 117.150761,
    "phone": "08115583903"
  },
  {
    "outlet_sap_id": "BM08",
    "name": "KF Bung Tomo (KF 354)",
    "department_id": 3139,
    "store_type": "HEALTH_AND_CARE",
    "operational_date": "2009-01-01",
    "address": "Jl. Bung Tomo No. 50",
    "postcode_id": 61571,
    "latitude": -0.514783,
    "longitude": 117.127877,
    "phone": "08115583908"
  },
  {
    "outlet_sap_id": "BM1311",
    "name": "PPO Klinik KF Amanah",
    "department_id": 3139,
    "store_type": "NONE",
    "operational_date": "2019-01-01",
    "address": "Jl. Pm Noor  Rt.50 No.4 Sempaja Sam",
    "postcode_id": 61136,
    "latitude": 0,
    "longitude": 0,
    "phone": "08115801582"
  },
  {
    "outlet_sap_id": "BM17",
    "name": "KF Timbau (KF 725)",
    "department_id": 3139,
    "store_type": "MEDICAL",
    "operational_date": "2016-12-01",
    "address": "Jl. Wolter Mongonsidi Tenggarong",
    "postcode_id": 60823,
    "latitude": -0.435798,
    "longitude": 116.996719,
    "phone": "08115583916"
  },
  {
    "outlet_sap_id": "BM18",
    "name": "KF Sambutan (KF 823)",
    "department_id": 3139,
    "store_type": "BASIC_HEALTH",
    "operational_date": "2016-09-16",
    "address": "Jl.Sultan Alimuddin No.6 Sambutan",
    "postcode_id": 61467,
    "latitude": -0.517027,
    "longitude": 117.163774,
    "phone": "08115583917"
  },
  {
    "outlet_sap_id": "BM19",
    "name": "KF Sukarame (KF 824)",
    "department_id": 3139,
    "store_type": "MEDICAL",
    "operational_date": "2017-01-17",
    "address": "Jl.Awang Long Senopati No.27",
    "postcode_id": 60823,
    "latitude": -0.406009,
    "longitude": 116.989853,
    "phone": "08115583918"
  },
  {
    "outlet_sap_id": "BM21",
    "name": "KF Kadrie Oening (KF 854)",
    "department_id": 3139,
    "store_type": "BASIC_HEALTH",
    "operational_date": "2017-01-17",
    "address": "Jl. Kadrie Oening RT.18 No. 89B",
    "postcode_id": 61011,
    "latitude": -0.473146,
    "longitude": 117.126395,
    "phone": "08115583920"
  },
  {
    "outlet_sap_id": "BM22",
    "name": "KF Loa Janan (KF 907)",
    "department_id": 3139,
    "store_type": "HEALTH_AND_CARE",
    "operational_date": "2017-01-17",
    "address": "Jl. Cipto Mangunkusumo No. 2C RT.19, Kel. Simpang Tiga, Kec. Loa Janan Ilir, Kota Samarinda",
    "postcode_id": 60817,
    "latitude": -0.569968927,
    "longitude": 117.0872837,
    "phone": "08115583921"
  },
  {
    "outlet_sap_id": "BM23",
    "name": "KF Palaran (KF 930)",
    "department_id": 3139,
    "store_type": "MEDICAL",
    "operational_date": "2017-11-17",
    "address": "JL. TRIKORA RT.004",
    "postcode_id": 60908,
    "latitude": -0.560338999,
    "longitude": 117.1683869,
    "phone": "08115583922"
  },
  {
    "outlet_sap_id": "BM24",
    "name": "KF. Sangatta",
    "department_id": 3139,
    "store_type": "",
    "operational_date": "2020-01-01",
    "address": "JL.YOS SUDARSO SANGATTA",
    "postcode_id": 61538,
    "latitude": 0,
    "longitude": 0,
    "phone": "054925190"
  },
  {
    "outlet_sap_id": "BM25",
    "name": "Klinik Mandiri KF Amanah",
    "department_id": 3139,
    "store_type": "",
    "operational_date": "1010-01-01",
    "address": "JL. PM. NOOR NO 4 RT. 50",
    "postcode_id": 61136,
    "latitude": 0,
    "longitude": 0,
    "phone": "0541220286"
  },
  {
    "outlet_sap_id": "BM27",
    "name": "KF Gunung Cermai (KF 1038)",
    "department_id": 3139,
    "store_type": "BASIC_HEALTH",
    "operational_date": "2018-08-13",
    "address": "Jl. Gunung Cermai Rt.01, Samarinda",
    "postcode_id": 61011,
    "latitude": -0.498776233,
    "longitude": 117.1357971,
    "phone": "08115583924"
  },
  {
    "outlet_sap_id": "BM28",
    "name": "KF Gerilya (KF 1020)",
    "department_id": 3139,
    "store_type": "HEALTH_AND_CARE",
    "operational_date": "2018-07-23",
    "address": "Jl. Gerilya Ruko 1B/1C Rt.10",
    "postcode_id": 18680,
    "latitude": -0.484107162,
    "longitude": 117.1740023,
    "phone": "08115583925"
  },
  {
    "outlet_sap_id": "BM29",
    "name": "KF Barong Tongkok (KF 1290)",
    "department_id": 3139,
    "store_type": "BASIC_HEALTH",
    "operational_date": "2020-09-18",
    "address": "Jl. Naras Gunaaq RT 4",
    "postcode_id": 60807,
    "latitude": -0.244783362,
    "longitude": 115.6888618,
    "phone": "08115583926"
  },
  {
    "outlet_sap_id": "BM30",
    "name": "KF Yos Sudarso (KF 1265)",
    "department_id": 3139,
    "store_type": "MEDICAL",
    "operational_date": "2020-01-30",
    "address": "Jl. Yos Sudarso II RT.16 NO.41",
    "postcode_id": 61538,
    "latitude": 0.505241054,
    "longitude": 117.534354,
    "phone": "08115583927"
  },
  {
    "outlet_sap_id": "BM33",
    "name": "KF PM NOOR",
    "department_id": 3139,
    "store_type": "BASIC_HEALTH",
    "operational_date": "1010-01-01",
    "address": "Jl. PM. Noor",
    "postcode_id": 61136,
    "latitude": -0.4533358,
    "longitude": 117.164977,
    "phone": "08115801582"
  },
  {
    "outlet_sap_id": "BN01",
    "name": "KF.0016",
    "department_id": 3140,
    "store_type": "SUPER_STORE",
    "operational_date": "2003-01-01",
    "address": "Jl. Imam Bonjol No.32",
    "postcode_id": 31697,
    "latitude": -6.886173,
    "longitude": 109.669618,
    "phone": "08112608913"
  },
  {
    "outlet_sap_id": "BN15",
    "name": "KF 1125 Kedungwuni",
    "department_id": 3140,
    "store_type": "NONE",
    "operational_date": "2018-09-01",
    "address": "Jl. Urip Sumoharjo, Jebegan, Podo,",
    "postcode_id": 31220,
    "latitude": -6.961033279,
    "longitude": 109.6470829,
    "phone": "021"
  },
  {
    "outlet_sap_id": "BN19",
    "name": "KF Express Rest Area 260B Banjaratma",
    "department_id": 3140,
    "store_type": "BASIC_HEALTH",
    "operational_date": "2023-04-14",
    "address": "Rest Area 260B Banjaratma, Ruas Jalan Tol Pejagan - Pemalang KM 260B arah Jakarta Banjaratma, Kecamatan Bulakamba, Kabupaten Brebes Jawa Tengah",
    "postcode_id": 31432,
    "latitude": -6.905956306,
    "longitude": 108.9834645,
    "phone": "081127038888"
  },
  {
    "outlet_sap_id": "BO03",
    "name": "KF.0019",
    "department_id": 3141,
    "store_type": "BASIC_HEALTH",
    "operational_date": "2003-01-01",
    "address": "Jl. ST. Agung No. 1 A Komp.Pertokoan R. A/15",
    "postcode_id": 32692,
    "latitude": -7.007774,
    "longitude": 110.415696,
    "phone": "08112922303"
  },
  {
    "outlet_sap_id": "BO1811",
    "name": "PPO Klinik KF Medoho Gajah",
    "department_id": 3141,
    "store_type": "NONE",
    "operational_date": "2019-01-01",
    "address": "Jl. Medoho 1 No. 18 Rt.001 Rw.001 K",
    "postcode_id": 38254,
    "latitude": -6.98183471,
    "longitude": 110.40928,
    "phone": "08139871998"
  },
  {
    "outlet_sap_id": "BO1812",
    "name": "PPO Klinik KF USM Gajah",
    "department_id": 3141,
    "store_type": "NONE",
    "operational_date": "2019-01-01",
    "address": "Jl. Soekarno Hatta, Tlogosari, Sema",
    "postcode_id": 39182,
    "latitude": -6.982372,
    "longitude": 110.453054,
    "phone": "08112886398"
  },
  {
    "outlet_sap_id": "BO2411",
    "name": "PPO Klinik KF Mayong Jepara",
    "department_id": 3141,
    "store_type": "MEDICAL",
    "operational_date": "2019-01-01",
    "address": "Jl. Raya Jepara-Kudus KM. 22, No 05",
    "postcode_id": 31397,
    "latitude": -6.695083,
    "longitude": 110.771323,
    "phone": "02917517102"
  },
  {
    "outlet_sap_id": "BO25",
    "name": "KF Tlogosari",
    "department_id": 3141,
    "store_type": "MEDICAL",
    "operational_date": "2022-11-10",
    "address": "Jl. Tlogosari Raya II No. 46, Kel.",
    "postcode_id": 39182,
    "latitude": -6.98249,
    "longitude": 110.46018,
    "phone": "08112780177"
  },
  {
    "outlet_sap_id": "BO28",
    "name": "KF 1042 Pemuda Pati",
    "department_id": 3141,
    "store_type": "MEDICAL",
    "operational_date": "2018-12-01",
    "address": "Jl. Pemuda No.288 DS. Kalidoro, Kec",
    "postcode_id": 36741,
    "latitude": -6.75347,
    "longitude": 111.04953,
    "phone": "08112962823"
  },
  {
    "outlet_sap_id": "BO41",
    "name": "KF Unwahas",
    "department_id": 3141,
    "store_type": "BASIC_HEALTH",
    "operational_date": "1010-01-01",
    "address": "Jl. Menoreh Raya No. 94, Kel. Sampa",
    "postcode_id": 31714,
    "latitude": -7.011861,
    "longitude": 110.390744,
    "phone": "08112886397"
  },
  {
    "outlet_sap_id": "BP0911",
    "name": "PPO KF Dolopo",
    "department_id": 3142,
    "store_type": "NONE",
    "operational_date": "1010-01-01",
    "address": "Jl. Raya Dolopo - Ngebel No.465, Kr",
    "postcode_id": 40351,
    "latitude": -7.756970354,
    "longitude": 111.5273714,
    "phone": "03513630846"
  },
  {
    "outlet_sap_id": "BP17",
    "name": "KF CARUBAN",
    "department_id": 3142,
    "store_type": "",
    "operational_date": "2017-04-04",
    "address": "jl. Ahmad yani no 106 caruban",
    "postcode_id": 46728,
    "latitude": -7.541771,
    "longitude": 111.6585365,
    "phone": "03513822401"
  },
  {
    "outlet_sap_id": "BP22",
    "name": "KF 0896 Urip Sumoharjo",
    "department_id": 3142,
    "store_type": "BASIC_HEALTH",
    "operational_date": "2018-02-01",
    "address": "Jl. Urip Sumoharjo No. 52 Ponorogo",
    "postcode_id": 40697,
    "latitude": -7.8651791,
    "longitude": 111.4645526,
    "phone": "021"
  },
  {
    "outlet_sap_id": "BP28",
    "name": "KF Jaten",
    "department_id": 3142,
    "store_type": "BASIC_HEALTH",
    "operational_date": "1010-01-01",
    "address": "Jl. Raya Solo-Tawangmangu Km.7",
    "postcode_id": 32002,
    "latitude": -7.57494,
    "longitude": 110.8874,
    "phone": "085175237755"
  },
  {
    "outlet_sap_id": "BQ07",
    "name": "KF FAKFAK",
    "department_id": 3143,
    "store_type": "BASIC_HEALTH",
    "operational_date": "2016-09-16",
    "address": "Jl. Yos sudarso RT 06 Kel. dulanpokpok Kec. pariwari Kab.fakfak",
    "postcode_id": 81034,
    "latitude": -2.931611,
    "longitude": 132.295181,
    "phone": "081110678169"
  },
  {
    "outlet_sap_id": "BQ11",
    "name": "KF Aimas",
    "department_id": 3143,
    "store_type": "BASIC_HEALTH",
    "operational_date": "2018-10-01",
    "address": "Jl. Sorong - Klamono, Samping Alun Alun Aimas, Kab. Sorong, Papua Barat",
    "postcode_id": 80245,
    "latitude": -0.956822,
    "longitude": 131.336339,
    "phone": "081110678158"
  },
  {
    "outlet_sap_id": "BQ12",
    "name": "KF Raja Ampat",
    "department_id": 3143,
    "store_type": "BASIC_HEALTH",
    "operational_date": "1010-01-01",
    "address": "Jl. Poros No. 30 Kota Waisai",
    "postcode_id": 81053,
    "latitude": -0.42322,
    "longitude": 130.81724,
    "phone": "081148501937"
  },
  {
    "outlet_sap_id": "BR08",
    "name": "KF 906 Cangkir",
    "department_id": 3144,
    "store_type": "NONE",
    "operational_date": "2017-07-01",
    "address": "Jl. Raya Cangkir KM. 22, Kel. Bambe, Kec. Driyorejo, Kab. Gresik, Jawa Timur, Indonesia Kode Pos",
    "postcode_id": 40466,
    "latitude": -7.3663584,
    "longitude": 112.6312878,
    "phone": "085853422006"
  },
  {
    "outlet_sap_id": "BR1101",
    "name": "Klinik KF Bojonegoro",
    "department_id": 3144,
    "store_type": "",
    "operational_date": "1010-01-01",
    "address": "JL. DIPONEGORO NO. 77",
    "postcode_id": 42653,
    "latitude": 0,
    "longitude": 0,
    "phone": "0353881539"
  },
  {
    "outlet_sap_id": "BR16",
    "name": "KF Sidayu",
    "department_id": 3144,
    "store_type": "NONE",
    "operational_date": "1010-01-01",
    "address": "Jl. Raya Sidayu Panceng Gresik",
    "postcode_id": 40308,
    "latitude": -6.990797,
    "longitude": 112.563578,
    "phone": "021"
  },
  {
    "outlet_sap_id": "BT0711",
    "name": "PPO Klinik KF Pratama Sebelas Medika",
    "department_id": 3146,
    "store_type": "MEDICAL",
    "operational_date": "2019-01-01",
    "address": "Jl. Bung Tomo No. 5, Surabaya",
    "postcode_id": 41537,
    "latitude": -7.290253909,
    "longitude": 112.7466953,
    "phone": "031"
  },
  {
    "outlet_sap_id": "BT13",
    "name": "KF.0274 PAMEKASAN",
    "department_id": 3146,
    "store_type": "NONE",
    "operational_date": "2003-01-01",
    "address": "Jl. Trunojoyo 92 Pamekasan",
    "postcode_id": 40744,
    "latitude": -7.159516,
    "longitude": 113.481658,
    "phone": "08113500274"
  },
  {
    "outlet_sap_id": "BT17",
    "name": "KF 0432 Ampel",
    "department_id": 3146,
    "store_type": "BASIC_HEALTH",
    "operational_date": "2013-01-01",
    "address": "Jalan K.H.M Mansyur No.77, Kel. Nyamplungan",
    "postcode_id": 1,
    "latitude": -7.2327564,
    "longitude": 112.741094,
    "phone": "08113393322"
  },
  {
    "outlet_sap_id": "BT35",
    "name": "KF KUPANG JAYA",
    "department_id": 3146,
    "store_type": "MEDICAL",
    "operational_date": "2016-11-16",
    "address": "Jl. Kupang Jaya Blok B - 4 Surabaya",
    "postcode_id": 47011,
    "latitude": -7.276075,
    "longitude": 112.70672,
    "phone": "081334714074"
  },
  {
    "outlet_sap_id": "BT43",
    "name": "Apotek KF HR Muhammad",
    "department_id": 3146,
    "store_type": "BASIC_HEALTH",
    "operational_date": "2018-08-01",
    "address": "Jl. HR Muhammad No.21 Surabaya",
    "postcode_id": 45877,
    "latitude": -7.286402,
    "longitude": 112.700143,
    "phone": "082332907438"
  },
  {
    "outlet_sap_id": "BT45",
    "name": "KF 994 Sukolilo",
    "department_id": 3146,
    "store_type": "MEDICAL",
    "operational_date": "2018-08-01",
    "address": "Jl. Nginden Semolo No.22, RT.002/RW.01, Nginden Jangkungan",
    "postcode_id": 31330,
    "latitude": -7.299570588,
    "longitude": 112.764325,
    "phone": 81336394448
  },
  {
    "outlet_sap_id": "BT49",
    "name": "KF Penjaringan",
    "department_id": 3146,
    "store_type": "MEDICAL",
    "operational_date": "2019-03-25",
    "address": "Jl. Raya Pandugo No.72, Penjaringan Sari",
    "postcode_id": 42687,
    "latitude": -7.321290924,
    "longitude": 112.7870442,
    "phone": "087753423271"
  },
  {
    "outlet_sap_id": "BT51",
    "name": "KF Wiyung 2",
    "department_id": 3146,
    "store_type": "BASIC_HEALTH",
    "operational_date": "2019-01-20",
    "address": "Jl. Menganti No.177, Wiyung, Kec. Wiyung, Kota SBY, Jawa Timur",
    "postcode_id": 42282,
    "latitude": -7.313936,
    "longitude": 112.698459,
    "phone": "08113241919"
  },
  {
    "outlet_sap_id": "BT58",
    "name": "Klinik Pratama KF Sebelas Medika",
    "department_id": 3146,
    "store_type": "",
    "operational_date": "1010-01-01",
    "address": "Jl. Bung Tomo No. 5-7, Surabaya",
    "postcode_id": 41537,
    "latitude": 112.746707,
    "longitude": -7.290228,
    "phone": "03199022682"
  },
  {
    "outlet_sap_id": "BT62",
    "name": "KF Kutisari",
    "department_id": 3146,
    "store_type": "BASIC_HEALTH",
    "operational_date": "1010-01-01",
    "address": "Jl. Kutisari Selatan. No.36",
    "postcode_id": 44003,
    "latitude": -7.33570431,
    "longitude": 112.7467521,
    "phone": "085174133204"
  },
  {
    "outlet_sap_id": "BT63",
    "name": "KF Babatan",
    "department_id": 3146,
    "store_type": "BASIC_HEALTH",
    "operational_date": "1010-01-01",
    "address": "Jl. Menganti No.722 Kel. Babatan",
    "postcode_id": 40406,
    "latitude": -7.308562125,
    "longitude": 112.6749583,
    "phone": "082331932518"
  },
  {
    "outlet_sap_id": "BT65",
    "name": "KF Lakarsantri",
    "department_id": 3146,
    "store_type": "MEDICAL",
    "operational_date": "2023-07-07",
    "address": "Jl. Lidah Kulon No.16, Lakarsantri",
    "postcode_id": 1,
    "latitude": -7.305599174,
    "longitude": 112.6572329,
    "phone": "089697009400"
  },
  {
    "outlet_sap_id": "BT66",
    "name": "KF Kedung Cowek",
    "department_id": 3146,
    "store_type": "MEDICAL",
    "operational_date": "2023-07-07",
    "address": "Jl. Kedung Cowek no.44 Tambaksari",
    "postcode_id": 47724,
    "latitude": -7.24186622,
    "longitude": 112.7695,
    "phone": "08998160160"
  },
  {
    "outlet_sap_id": "BT67",
    "name": "KF Karang Pilang",
    "department_id": 3146,
    "store_type": "BASIC_HEALTH",
    "operational_date": "1010-01-01",
    "address": "Jl. Mastrip no.185 Karang Pilang",
    "postcode_id": 1,
    "latitude": -7.33570431,
    "longitude": 112.7059855,
    "phone": "082220295918"
  },
  {
    "outlet_sap_id": "BT68",
    "name": "KF Sumenep 2",
    "department_id": 3146,
    "store_type": "NONE",
    "operational_date": "1010-01-01",
    "address": "Jl. Trunojoyo No.91 Sumenep",
    "postcode_id": 45274,
    "latitude": -7.018030512,
    "longitude": 113.8578097,
    "phone": "082228260168"
  },
  {
    "outlet_sap_id": "BU0112",
    "name": "PPO Klinik KF Cimangkok",
    "department_id": 3147,
    "store_type": "BASIC_HEALTH",
    "operational_date": "2019-01-01",
    "address": "Jl. Raya Sukabumi Cianjur Kec. Suka",
    "postcode_id": 26503,
    "latitude": 0,
    "longitude": 0,
    "phone": "0263"
  },
  {
    "outlet_sap_id": "BU0113",
    "name": "PPO Klinik KF 008",
    "department_id": 3147,
    "store_type": "BASIC_HEALTH",
    "operational_date": "2019-01-01",
    "address": "Jl. Veteran II No.2",
    "postcode_id": 27211,
    "latitude": 0,
    "longitude": 0,
    "phone": "0263"
  },
  {
    "outlet_sap_id": "BU0312",
    "name": "PPO Klinik KF PT Pratama Nike",
    "department_id": 3147,
    "store_type": "BASIC_HEALTH",
    "operational_date": "2019-01-01",
    "address": "Jl. Raya Sukabumi Cianjur Km 13-14,",
    "postcode_id": 26503,
    "latitude": 0,
    "longitude": 0,
    "phone": "0263"
  },
  {
    "outlet_sap_id": "BU11",
    "name": "KF Pelabuhan Ratux",
    "department_id": 3147,
    "store_type": "BASIC_HEALTH",
    "operational_date": "2016-11-16",
    "address": "Jl.Siliwangi No.49 Pel Ratu -Sukab",
    "postcode_id": 22599,
    "latitude": -6.988212,
    "longitude": 106.547653,
    "phone": "08111169740"
  },
  {
    "outlet_sap_id": "BV20",
    "name": "KF Rau",
    "department_id": 3148,
    "store_type": "BASIC_HEALTH",
    "operational_date": "2023-03-01",
    "address": "Jl. Kyai H. Abdul Latif No.41, Cimuncang",
    "postcode_id": 49024,
    "latitude": -6.112506,
    "longitude": 106.166584,
    "phone": "081112525010"
  },
  {
    "outlet_sap_id": "BW0311",
    "name": "PPO KF 95 (RSIA PUTRA DALIMA)",
    "department_id": 3149,
    "store_type": "NONE",
    "operational_date": "2019-01-01",
    "address": "Jln. Raya Serpong Sektor VII BSD Blok RP. No. 92, ,,",
    "postcode_id": 49498,
    "latitude": 0.111111111,
    "longitude": 0.3345,
    "phone": "021"
  },
  {
    "outlet_sap_id": "BW0411",
    "name": "PPO Klinik KF Tiara",
    "department_id": 3149,
    "store_type": "BASIC_HEALTH",
    "operational_date": "2019-01-01",
    "address": "Jl. Pamulang Permai Raya Blok E No.",
    "postcode_id": 48736,
    "latitude": 0.26,
    "longitude": 0.36,
    "phone": "081280203299"
  },
  {
    "outlet_sap_id": "BW0611",
    "name": "PPO Klinik KF Cipondoh",
    "department_id": 3149,
    "store_type": "NONE",
    "operational_date": "1010-01-01",
    "address": "Jl. KH Hasyim Ashari No. 68, RT 003/RW 002",
    "postcode_id": 49848,
    "latitude": -6.186325306,
    "longitude": 106.6576306,
    "phone": "021"
  },
  {
    "outlet_sap_id": "BW09",
    "name": "KF 0475 BERINGIN",
    "department_id": 3149,
    "store_type": "BASIC_HEALTH",
    "operational_date": "2013-01-01",
    "address": "Jl. Beringin Raya No.45 A, Karawaci",
    "postcode_id": 49636,
    "latitude": -6.19818,
    "longitude": 106.614809,
    "phone": "081110678308"
  },
  {
    "outlet_sap_id": "BW21",
    "name": "KF 0620 PORIS",
    "department_id": 3149,
    "store_type": "MEDICAL",
    "operational_date": "2015-02-02",
    "address": "Jl. Poris Indah Blok C 1 No. 3",
    "postcode_id": 49846,
    "latitude": -6.172148,
    "longitude": 106.6832488,
    "phone": "081110678319"
  },
  {
    "outlet_sap_id": "BW28",
    "name": "KLINIK MANDIRI KF TIARA",
    "department_id": 3149,
    "store_type": "MEDICAL",
    "operational_date": "2018-05-30",
    "address": "Jl. Pamulang Permai Raya Blok E No.8, Pamulang Barat",
    "postcode_id": 48736,
    "latitude": 0.1233,
    "longitude": 0.111,
    "phone": "09182736"
  },
  {
    "outlet_sap_id": "BW4111",
    "name": "PPO Klinik KF Kedaung",
    "department_id": 3149,
    "store_type": "BASIC_HEALTH",
    "operational_date": "2019-01-01",
    "address": "Jl. Keuangan Rt001/Rw002,  KEDAUNG",
    "postcode_id": 48736,
    "latitude": 0,
    "longitude": 0.02,
    "phone": "085947720857"
  },
  {
    "outlet_sap_id": "BW46",
    "name": "KF OSHCS GADING SERPONG",
    "department_id": 3149,
    "store_type": "BASIC_HEALTH",
    "operational_date": "2020-03-01",
    "address": "Jl. Boulevard Gading Serpong Blok M5 No. 8B, Tangerang",
    "postcode_id": 49108,
    "latitude": -6.2455,
    "longitude": 106.628,
    "phone": "081110678309"
  },
  {
    "outlet_sap_id": "BW50",
    "name": "KF Alam Sutera 2",
    "department_id": 3149,
    "store_type": "BASIC_HEALTH",
    "operational_date": "1010-01-01",
    "address": "JALAN SERPONG NOMOR 8C RT/RW 004/002, Desa/Kelurahan Pakulonan",
    "postcode_id": 49498,
    "latitude": -6.2441088,
    "longitude": 106.6492788,
    "phone": "081288041608"
  },
  {
    "outlet_sap_id": "BX14",
    "name": "KF 0416",
    "department_id": 3150,
    "store_type": "BASIC_HEALTH",
    "operational_date": "2012-01-01",
    "address": "Jl. Taman Siswa No. 100, Wirogunan",
    "postcode_id": 40187,
    "latitude": -7.809899,
    "longitude": 110.377022,
    "phone": "081110678226"
  },
  {
    "outlet_sap_id": "BX36",
    "name": "KF Besi",
    "department_id": 3150,
    "store_type": "MEDICAL",
    "operational_date": "2018-09-01",
    "address": "Jl. Kaliurang KM.13, Sardonoharjo,",
    "postcode_id": 39829,
    "latitude": 7.69826,
    "longitude": 110.41644,
    "phone": "088232765000"
  },
  {
    "outlet_sap_id": "BX54",
    "name": "KF Pandeyan",
    "department_id": 3150,
    "store_type": "MEDICAL",
    "operational_date": "2023-07-17",
    "address": "Jl. Pandeyan no. 22 RT 11/12 Umbulh",
    "postcode_id": 40004,
    "latitude": -7.813776271,
    "longitude": 110.3862002,
    "phone": "02744230810"
  },
  {
    "outlet_sap_id": "CP01",
    "name": "KF Urimesing Ambon",
    "department_id": 3168,
    "store_type": "BASIC_HEALTH",
    "operational_date": "2024-01-05",
    "address": "Jl. Diponegoro no.66 Ahusen Si",
    "postcode_id": 72531,
    "latitude": -3.700658,
    "longitude": 128.182242,
    "phone": 82197621522
  },
  {
    "outlet_sap_id": "CS02",
    "name": "KF.0274 PAMEKASAN",
    "department_id": 3171,
    "store_type": "BASIC_HEALTH",
    "operational_date": "2024-01-05",
    "address": "Jl. Trunojoyo 92 Pamekasan Bar",
    "postcode_id": 40744,
    "latitude": -7.159516,
    "longitude": 113.481658,
    "phone": ""
  },
  {
    "outlet_sap_id": "CS07",
    "name": "KF.Sumenep 2",
    "department_id": 3171,
    "store_type": "NONE",
    "operational_date": "2024-01-05",
    "address": "Jl. Trunojoyo No.91, Labangsen",
    "postcode_id": 45274,
    "latitude": -7.018030512,
    "longitude": 113.8578097,
    "phone": 82228260168
  },
  {
    "outlet_sap_id": "YR01",
    "name": "WS SUBUR ABADI",
    "department_id": 5169,
    "store_type": "NONE",
    "operational_date": "1010-01-01",
    "address": "JW49+WF4, Kebayanan 1, Gabugan",
    "postcode_id": 31910,
    "latitude": -7.3927375,
    "longitude": 110.9187031,
    "phone": "021"
  },
  {
    "outlet_sap_id": "YR02",
    "name": "WS JATINOM",
    "department_id": 5169,
    "store_type": "NONE",
    "operational_date": "1010-01-01",
    "address": "Jl. Krajan-Jatinom, Dusun 2, Krajan,",
    "postcode_id": 31403,
    "latitude": -7.6274564,
    "longitude": 110.5934689,
    "phone": "021"
  },
  {
    "outlet_sap_id": "YR03",
    "name": "WS PUSKUD KEBUMEN",
    "department_id": 5169,
    "store_type": "NONE",
    "operational_date": "1010-01-01",
    "address": "Dukuh, Kebumen, Kebumen Regency,,",
    "postcode_id": 34600,
    "latitude": -7.641607,
    "longitude": 109.7024814,
    "phone": "021"
  },
  {
    "outlet_sap_id": "YR04",
    "name": "WS GRABAG",
    "department_id": 5169,
    "store_type": "NONE",
    "operational_date": "1010-01-01",
    "address": "J8MG+2QH, Kaliaji, Plumbon",
    "postcode_id": 31204,
    "latitude": -7.3674269,
    "longitude": 110.3248036,
    "phone": "021"
  },
  {
    "outlet_sap_id": "YR05",
    "name": "WS TANI MANUNGGAL",
    "department_id": 5169,
    "store_type": "NONE",
    "operational_date": "1010-01-01",
    "address": "77MC+H39, Sunggungan, Sendangrejo,",
    "postcode_id": 40072,
    "latitude": -7.7160875,
    "longitude": 110.2702344,
    "phone": "021"
  },
  {
    "outlet_sap_id": "YR06",
    "name": "WS MARGOYOSO",
    "department_id": 5169,
    "store_type": "NONE",
    "operational_date": "1010-01-01",
    "address": "Jl. Raya Pati - Tayu, Kedung,",
    "postcode_id": 32061,
    "latitude": -6.596877,
    "longitude": 111.0356225,
    "phone": "021"
  },
  {
    "outlet_sap_id": "YR07",
    "name": "WS PRASOJO",
    "department_id": 5169,
    "store_type": "NONE",
    "operational_date": "1010-01-01",
    "address": "Jl. Gatot Subroto, Tawangsari, Kebonsari,",
    "postcode_id": 31584,
    "latitude": -7.310479,
    "longitude": 110.1578545,
    "phone": "021"
  },
  {
    "outlet_sap_id": "YS01",
    "name": "WS ENDRA MULYA",
    "department_id": 5170,
    "store_type": "NONE",
    "operational_date": "1010-01-01",
    "address": "Desa Raman Endra Kec.Raman Utara Kab.Lampung Timur",
    "postcode_id": 22537,
    "latitude": -4.9496243,
    "longitude": 105.4466773,
    "phone": "021"
  },
  {
    "outlet_sap_id": "YS02",
    "name": "WS MAJU SENTOSA",
    "department_id": 5170,
    "store_type": "NONE",
    "operational_date": "1010-01-01",
    "address": "Kampung Bangun Rejo Kec.Bangun Rejo Kab.Lampung Tengah",
    "postcode_id": 21726,
    "latitude": -5.1428793,
    "longitude": 105.0248011,
    "phone": "021"
  },
  {
    "outlet_sap_id": "CQ07",
    "name": "KF Sijuk",
    "department_id": 3169,
    "store_type": "BASIC_HEALTH",
    "operational_date": "2024-01-05",
    "address": "",
    "postcode_id": 1,
    "latitude": 0,
    "longitude": 0,
    "phone": 0
  },
  {
    "outlet_sap_id": "CQ06",
    "name": "KF Semabung Baru",
    "department_id": 3169,
    "store_type": "BASIC_HEALTH",
    "operational_date": "2024-01-05",
    "address": "",
    "postcode_id": 1,
    "latitude": 0,
    "longitude": 0,
    "phone": 0
  },
  {
    "outlet_sap_id": "CQ03",
    "name": "KF.0503 Suta",
    "department_id": 3169,
    "store_type": "BASIC_HEALTH",
    "operational_date": "2024-01-05",
    "address": "",
    "postcode_id": 0,
    "latitude": 0,
    "longitude": 0,
    "phone": 0
  },
  {
    "outlet_sap_id": "CQ05",
    "name": "KF Sungai Liat 2",
    "department_id": 3169,
    "store_type": "BASIC_HEALTH",
    "operational_date": "2024-01-05",
    "address": "",
    "postcode_id": 1,
    "latitude": 0,
    "longitude": 0,
    "phone": 0
  },
  {
    "outlet_sap_id": "CQ01",
    "name": "KF 0118",
    "department_id": 3169,
    "store_type": "BASIC_HEALTH",
    "operational_date": "2024-01-05",
    "address": "",
    "postcode_id": 1,
    "latitude": 0,
    "longitude": 0,
    "phone": 0
  },
  {
    "outlet_sap_id": "CQ08",
    "name": "KF Sriwijaya",
    "department_id": 3169,
    "store_type": "BASIC_HEALTH",
    "operational_date": "2024-01-05",
    "address": "",
    "postcode_id": 1,
    "latitude": 0,
    "longitude": 0,
    "phone": 0
  },
  {
    "outlet_sap_id": "CQ04",
    "name": "KF.0539 Sudirman S Liat",
    "department_id": 3169,
    "store_type": "BASIC_HEALTH",
    "operational_date": "2024-01-05",
    "address": "",
    "postcode_id": 1,
    "latitude": 0,
    "longitude": 0,
    "phone": 0
  },
  {
    "outlet_sap_id": "CQ02",
    "name": "KF Pel.029 RSUD Pangkal Pinang",
    "department_id": 3169,
    "store_type": "BASIC_HEALTH",
    "operational_date": "2024-01-05",
    "address": "",
    "postcode_id": 1,
    "latitude": 0,
    "longitude": 0,
    "phone": 0
  },
  {
    "outlet_sap_id": 3169,
    "name": "UNIT BISNIS BANGKA BELITUNG",
    "department_id": 3169,
    "store_type": "NONE",
    "operational_date": "1010-01-01",
    "address": "",
    "postcode_id": 1,
    "latitude": 0,
    "longitude": 0,
    "phone": 0
  },
  {
    "outlet_sap_id": 3168,
    "name": "UNIT BISNIS AMBON",
    "department_id": 3168,
    "store_type": "NONE",
    "operational_date": "1010-01-01",
    "address": "",
    "postcode_id": 1,
    "latitude": 0,
    "longitude": 0,
    "phone": 0
  },
  {
    "outlet_sap_id": 3102,
    "name": "UNIT BISNIS BALIKPAPAN",
    "department_id": 3102,
    "store_type": "NONE",
    "operational_date": "1010-01-01",
    "address": "",
    "postcode_id": 1,
    "latitude": 0,
    "longitude": 0,
    "phone": 0
  },
  {
    "outlet_sap_id": 3101,
    "name": "UNIT BISNIS BANDA ACEH",
    "department_id": 3101,
    "store_type": "NONE",
    "operational_date": "1010-01-01",
    "address": "",
    "postcode_id": 1,
    "latitude": 0,
    "longitude": 0,
    "phone": 0
  },
  {
    "outlet_sap_id": 3107,
    "name": "UNIT BISNIS BANJARMASIN",
    "department_id": 3107,
    "store_type": "NONE",
    "operational_date": "1010-01-01",
    "address": "",
    "postcode_id": 1,
    "latitude": 0,
    "longitude": 0,
    "phone": 0
  },
  {
    "outlet_sap_id": 3110,
    "name": "UNIT BISNIS BEKASI",
    "department_id": 3110,
    "store_type": "NONE",
    "operational_date": "1010-01-01",
    "address": "",
    "postcode_id": 1,
    "latitude": 0,
    "longitude": 0,
    "phone": 0
  },
  {
    "outlet_sap_id": 3112,
    "name": "UNIT BISNIS BOGOR",
    "department_id": 3112,
    "store_type": "NONE",
    "operational_date": "1010-01-01",
    "address": "",
    "postcode_id": 1,
    "latitude": 0,
    "longitude": 0,
    "phone": 0
  },
  {
    "outlet_sap_id": 3148,
    "name": "UNIT BISNIS CILEGON",
    "department_id": 3148,
    "store_type": "NONE",
    "operational_date": "1010-01-01",
    "address": "",
    "postcode_id": 1,
    "latitude": 0,
    "longitude": 0,
    "phone": 0
  },
  {
    "outlet_sap_id": 3114,
    "name": "UNIT BISNIS CIREBON",
    "department_id": 3114,
    "store_type": "NONE",
    "operational_date": "1010-01-01",
    "address": "",
    "postcode_id": 1,
    "latitude": 0,
    "longitude": 0,
    "phone": 0
  },
  {
    "outlet_sap_id": 3116,
    "name": "UNIT BISNIS DENPASAR",
    "department_id": 3116,
    "store_type": "NONE",
    "operational_date": "1010-01-01",
    "address": "",
    "postcode_id": 1,
    "latitude": 0,
    "longitude": 0,
    "phone": 0
  },
  {
    "outlet_sap_id": 3126,
    "name": "UNIT BISNIS GORONTALO",
    "department_id": 3126,
    "store_type": "NONE",
    "operational_date": "1010-01-01",
    "address": "",
    "postcode_id": 1,
    "latitude": 0,
    "longitude": 0,
    "phone": 0
  },
  {
    "outlet_sap_id": 3133,
    "name": "UNIT BISNIS JAMBI",
    "department_id": 3133,
    "store_type": "NONE",
    "operational_date": "1010-01-01",
    "address": "",
    "postcode_id": 1,
    "latitude": 0,
    "longitude": 0,
    "phone": 0
  },
  {
    "outlet_sap_id": 3117,
    "name": "UNIT BISNIS JAYA I",
    "department_id": 3117,
    "store_type": "NONE",
    "operational_date": "1010-01-01",
    "address": "",
    "postcode_id": 1,
    "latitude": 0,
    "longitude": 0,
    "phone": 0
  },
  {
    "outlet_sap_id": 3111,
    "name": "UNIT BISNIS KARAWANG",
    "department_id": 3111,
    "store_type": "NONE",
    "operational_date": "1010-01-01",
    "address": "",
    "postcode_id": 1,
    "latitude": 0,
    "longitude": 0,
    "phone": 0
  },
  {
    "outlet_sap_id": 3121,
    "name": "UNIT BISNIS KENDARI",
    "department_id": 3121,
    "store_type": "NONE",
    "operational_date": "1010-01-01",
    "address": "",
    "postcode_id": 1,
    "latitude": 0,
    "longitude": 0,
    "phone": 0
  },
  {
    "outlet_sap_id": 3122,
    "name": "UNIT BISNIS KUPANG",
    "department_id": 3122,
    "store_type": "NONE",
    "operational_date": "1010-01-01",
    "address": "",
    "postcode_id": 1,
    "latitude": 0,
    "longitude": 0,
    "phone": 0
  },
  {
    "outlet_sap_id": 3123,
    "name": "UNIT BISNIS LAMPUNG",
    "department_id": 3123,
    "store_type": "NONE",
    "operational_date": "1010-01-01",
    "address": "",
    "postcode_id": 1,
    "latitude": 0,
    "longitude": 0,
    "phone": 0
  },
  {
    "outlet_sap_id": 3171,
    "name": "UNIT BISNIS MADURA",
    "department_id": 3171,
    "store_type": "NONE",
    "operational_date": "1010-01-01",
    "address": "",
    "postcode_id": 1,
    "latitude": 0,
    "longitude": 0,
    "phone": 0
  },
  {
    "outlet_sap_id": 3127,
    "name": "UNIT BISNIS MANADO",
    "department_id": 3127,
    "store_type": "NONE",
    "operational_date": "1010-01-01",
    "address": "",
    "postcode_id": 1,
    "latitude": 0,
    "longitude": 0,
    "phone": 0
  },
  {
    "outlet_sap_id": 3130,
    "name": "UNIT BISNIS MEDAN",
    "department_id": 3130,
    "store_type": "NONE",
    "operational_date": "1010-01-01",
    "address": "",
    "postcode_id": 1,
    "latitude": 0,
    "longitude": 0,
    "phone": 0
  },
  {
    "outlet_sap_id": 3115,
    "name": "UNIT BISNIS NUSADUA",
    "department_id": 3115,
    "store_type": "NONE",
    "operational_date": "1010-01-01",
    "address": "",
    "postcode_id": 1,
    "latitude": 0,
    "longitude": 0,
    "phone": 0
  },
  {
    "outlet_sap_id": 3131,
    "name": "UNIT BISNIS PADANG",
    "department_id": 3131,
    "store_type": "NONE",
    "operational_date": "1010-01-01",
    "address": "",
    "postcode_id": 1,
    "latitude": 0,
    "longitude": 0,
    "phone": 0
  },
  {
    "outlet_sap_id": 3132,
    "name": "UNIT BISNIS PALANGKARAYA",
    "department_id": 3132,
    "store_type": "NONE",
    "operational_date": "1010-01-01",
    "address": "",
    "postcode_id": 1,
    "latitude": 0,
    "longitude": 0,
    "phone": 0
  },
  {
    "outlet_sap_id": 3134,
    "name": "UNIT BISNIS PALEMBANG",
    "department_id": 3134,
    "store_type": "NONE",
    "operational_date": "1010-01-01",
    "address": "",
    "postcode_id": 1,
    "latitude": 0,
    "longitude": 0,
    "phone": 0
  },
  {
    "outlet_sap_id": 3141,
    "name": "UNIT BISNIS SEMARANG",
    "department_id": 3141,
    "store_type": "NONE",
    "operational_date": "1010-01-01",
    "address": "",
    "postcode_id": 1,
    "latitude": 0,
    "longitude": 0,
    "phone": 0
  },
  {
    "outlet_sap_id": 3143,
    "name": "UNIT BISNIS SORONG",
    "department_id": 3143,
    "store_type": "NONE",
    "operational_date": "1010-01-01",
    "address": "",
    "postcode_id": 1,
    "latitude": 0,
    "longitude": 0,
    "phone": 0
  },
  {
    "outlet_sap_id": 3147,
    "name": "UNIT BISNIS SUKABUMI",
    "department_id": 3147,
    "store_type": "NONE",
    "operational_date": "1010-01-01",
    "address": "",
    "postcode_id": 1,
    "latitude": 0,
    "longitude": 0,
    "phone": 0
  },
  {
    "outlet_sap_id": 3146,
    "name": "UNIT BISNIS SURABAYA",
    "department_id": 3146,
    "store_type": "NONE",
    "operational_date": "1010-01-01",
    "address": "",
    "postcode_id": 1,
    "latitude": 0,
    "longitude": 0,
    "phone": 0
  },
  {
    "outlet_sap_id": 3142,
    "name": "UNIT BISNIS SURAKARTA",
    "department_id": 3142,
    "store_type": "NONE",
    "operational_date": "1010-01-01",
    "address": "",
    "postcode_id": 1,
    "latitude": 0,
    "longitude": 0,
    "phone": 0
  },
  {
    "outlet_sap_id": 3149,
    "name": "UNIT BISNIS TANGERANG",
    "department_id": 3149,
    "store_type": "NONE",
    "operational_date": "1010-01-01",
    "address": "",
    "postcode_id": 1,
    "latitude": 0,
    "longitude": 0,
    "phone": 0
  },
  {
    "outlet_sap_id": 3105,
    "name": "UNIT BISNIS TASIKMALAYA",
    "department_id": 3105,
    "store_type": "NONE",
    "operational_date": "1010-01-01",
    "address": "",
    "postcode_id": 1,
    "latitude": 0,
    "longitude": 0,
    "phone": 0
  },
  {
    "outlet_sap_id": 3128,
    "name": "UNIT BISNIS TERNATE",
    "department_id": 3128,
    "store_type": "NONE",
    "operational_date": "1010-01-01",
    "address": "",
    "postcode_id": 1,
    "latitude": 0,
    "longitude": 0,
    "phone": 0
  },
  {
    "outlet_sap_id": 3150,
    "name": "UNIT BISNIS YOGYA",
    "department_id": 3150,
    "store_type": "NONE",
    "operational_date": "1010-01-01",
    "address": "",
    "postcode_id": 1,
    "latitude": 0,
    "longitude": 0,
    "phone": 0
  },
  {
    "outlet_sap_id": "BS19",
    "name": "KF Tropodo",
    "department_id": 3145,
    "store_type": "",
    "operational_date": "2019-07-15",
    "address": "",
    "postcode_id": 1,
    "latitude": 0,
    "longitude": 0,
    "phone": 0
  },
  {
    "outlet_sap_id": "BS26",
    "name": "KF Safe N Lock",
    "department_id": 3145,
    "store_type": "",
    "operational_date": "2022-04-01",
    "address": "",
    "postcode_id": 1,
    "latitude": 0,
    "longitude": 0,
    "phone": 0
  },
  {
    "outlet_sap_id": "BS13",
    "name": "KF Mojosari",
    "department_id": 3145,
    "store_type": "",
    "operational_date": "2016-08-16",
    "address": "",
    "postcode_id": 1,
    "latitude": 0,
    "longitude": 0,
    "phone": 0
  },
  {
    "outlet_sap_id": "BS23",
    "name": "KF CITRA MEDIKA",
    "department_id": 3145,
    "store_type": "",
    "operational_date": "2019-07-20",
    "address": "",
    "postcode_id": 1,
    "latitude": 0,
    "longitude": 0,
    "phone": 0
  },
  {
    "outlet_sap_id": "BS02",
    "name": "KF.0119 Sidoarjo",
    "department_id": 3145,
    "store_type": "",
    "operational_date": "2007-01-01",
    "address": "",
    "postcode_id": 1,
    "latitude": 0,
    "longitude": 0,
    "phone": 0
  },
  {
    "outlet_sap_id": "BS17",
    "name": "KF. Kertosono",
    "department_id": 3145,
    "store_type": "",
    "operational_date": "2017-06-01",
    "address": "",
    "postcode_id": 1,
    "latitude": 0,
    "longitude": 0,
    "phone": 0
  },
  {
    "outlet_sap_id": "BS07",
    "name": "KF.0521 Taman Pondok Jati",
    "department_id": 3145,
    "store_type": "",
    "operational_date": "2014-03-14",
    "address": "",
    "postcode_id": 1,
    "latitude": 0,
    "longitude": 0,
    "phone": 0
  },
  {
    "outlet_sap_id": "BS22",
    "name": "KF Gedangan 2",
    "department_id": 3145,
    "store_type": "",
    "operational_date": "2018-09-01",
    "address": "",
    "postcode_id": 1,
    "latitude": 0,
    "longitude": 0,
    "phone": 0
  },
  {
    "outlet_sap_id": "BS10",
    "name": "KF.0638 Puri Indah",
    "department_id": 3145,
    "store_type": "",
    "operational_date": "2015-02-02",
    "address": "",
    "postcode_id": 1,
    "latitude": 0,
    "longitude": 0,
    "phone": 0
  },
  {
    "outlet_sap_id": "BS14",
    "name": "KF Damarsi",
    "department_id": 3145,
    "store_type": "",
    "operational_date": "2016-11-16",
    "address": "",
    "postcode_id": 1,
    "latitude": 0,
    "longitude": 0,
    "phone": 0
  },
  {
    "outlet_sap_id": "BS21",
    "name": "KF PEPELEGI",
    "department_id": 3145,
    "store_type": "",
    "operational_date": "2018-07-01",
    "address": "",
    "postcode_id": 1,
    "latitude": 0,
    "longitude": 0,
    "phone": 0
  },
  {
    "outlet_sap_id": "BS24",
    "name": "KF Panglima Sudirman",
    "department_id": 3145,
    "store_type": "",
    "operational_date": "2019-11-01",
    "address": "",
    "postcode_id": 1,
    "latitude": 0,
    "longitude": 0,
    "phone": 0
  },
  {
    "outlet_sap_id": "BS01",
    "name": "KF.0065",
    "department_id": 3145,
    "store_type": "",
    "operational_date": "2003-01-01",
    "address": "",
    "postcode_id": 1,
    "latitude": 0,
    "longitude": 0,
    "phone": 0
  },
  {
    "outlet_sap_id": "BS03",
    "name": "KF.0124",
    "department_id": 3145,
    "store_type": "",
    "operational_date": "2003-01-01",
    "address": "",
    "postcode_id": 1,
    "latitude": 0,
    "longitude": 0,
    "phone": 0
  },
  {
    "outlet_sap_id": "BS15",
    "name": "KF Krian",
    "department_id": 3145,
    "store_type": "",
    "operational_date": "2016-11-16",
    "address": "",
    "postcode_id": 1,
    "latitude": 0,
    "longitude": 0,
    "phone": 0
  },
  {
    "outlet_sap_id": "BS04",
    "name": "KF.0165 Pasuruan",
    "department_id": 3145,
    "store_type": "",
    "operational_date": "2003-01-01",
    "address": "",
    "postcode_id": 1,
    "latitude": 0,
    "longitude": 0,
    "phone": 0
  },
  {
    "outlet_sap_id": "BS08",
    "name": "KF.0603 Gedangan",
    "department_id": 3145,
    "store_type": "",
    "operational_date": "2014-12-03",
    "address": "",
    "postcode_id": 1,
    "latitude": 0,
    "longitude": 0,
    "phone": 0
  },
  {
    "outlet_sap_id": "BS09",
    "name": "KF.0604 Jombang",
    "department_id": 3145,
    "store_type": "",
    "operational_date": "2014-12-03",
    "address": "",
    "postcode_id": 1,
    "latitude": 0,
    "longitude": 0,
    "phone": 0
  },
  {
    "outlet_sap_id": "BS16",
    "name": "KF. REWWIN",
    "department_id": 3145,
    "store_type": "",
    "operational_date": "2016-12-01",
    "address": "",
    "postcode_id": 1,
    "latitude": 0,
    "longitude": 0,
    "phone": 0
  },
  {
    "outlet_sap_id": "BS25",
    "name": "KF Kedawung",
    "department_id": 3145,
    "store_type": "",
    "operational_date": "2020-06-09",
    "address": "",
    "postcode_id": 1,
    "latitude": 0,
    "longitude": 0,
    "phone": 0
  },
  {
    "outlet_sap_id": "BS29",
    "name": "KF Sukodono",
    "department_id": 3145,
    "store_type": "",
    "operational_date": "2020-09-20",
    "address": "",
    "postcode_id": 1,
    "latitude": 0,
    "longitude": 0,
    "phone": 0
  },
  {
    "outlet_sap_id": "BS18",
    "name": "KF. Bangil Pasuruan",
    "department_id": 3145,
    "store_type": "",
    "operational_date": "2017-02-01",
    "address": "",
    "postcode_id": 1,
    "latitude": 0,
    "longitude": 0,
    "phone": 0
  },
  {
    "outlet_sap_id": "BS20",
    "name": "KF PANDAAN",
    "department_id": 3145,
    "store_type": "",
    "operational_date": "2018-07-01",
    "address": "",
    "postcode_id": 1,
    "latitude": 0,
    "longitude": 0,
    "phone": 0
  },
  {
    "outlet_sap_id": "BS12",
    "name": "KF.Nganjuk",
    "department_id": 3145,
    "store_type": "",
    "operational_date": "2015-12-12",
    "address": "",
    "postcode_id": 1,
    "latitude": 0,
    "longitude": 0,
    "phone": 0
  },
  {
    "outlet_sap_id": "BS27",
    "name": "KF Wage Sidoarjo",
    "department_id": 3145,
    "store_type": "",
    "operational_date": "2020-07-01",
    "address": "",
    "postcode_id": 1,
    "latitude": 0,
    "longitude": 0,
    "phone": 0
  },
  {
    "outlet_sap_id": "BS05",
    "name": "KF.0180 Pahlawan",
    "department_id": 3145,
    "store_type": "",
    "operational_date": "2003-01-01",
    "address": "",
    "postcode_id": 1,
    "latitude": 0,
    "longitude": 0,
    "phone": 0
  },
  {
    "outlet_sap_id": "BS11",
    "name": "KF.Diponegoro",
    "department_id": 3145,
    "store_type": "",
    "operational_date": "2015-12-12",
    "address": "",
    "postcode_id": 1,
    "latitude": 0,
    "longitude": 0,
    "phone": 0
  },
  {
    "outlet_sap_id": "BS06",
    "name": "KF.0261",
    "department_id": 3145,
    "store_type": "",
    "operational_date": "2003-01-01",
    "address": "",
    "postcode_id": 1,
    "latitude": 0,
    "longitude": 0,
    "phone": 0
  },
  {
    "outlet_sap_id": "BS0101",
    "name": "KLINIK - KF.0065",
    "department_id": 3145,
    "store_type": "",
    "operational_date": "2003-01-01",
    "address": "",
    "postcode_id": 1,
    "latitude": 0,
    "longitude": 0,
    "phone": 0
  },
  {
    "outlet_sap_id": "BS0301",
    "name": "KF.0124",
    "department_id": 3145,
    "store_type": "",
    "operational_date": "2003-01-01",
    "address": "",
    "postcode_id": 1,
    "latitude": 0,
    "longitude": 0,
    "phone": 0
  },
  {
    "outlet_sap_id": "BS0401",
    "name": "KLINIK - KF.0165 Pasuruan",
    "department_id": 3145,
    "store_type": "",
    "operational_date": "2003-01-01",
    "address": "",
    "postcode_id": 1,
    "latitude": 0,
    "longitude": 0,
    "phone": 0
  },
  {
    "outlet_sap_id": "BS0601",
    "name": "KLINIK - KF.0261",
    "department_id": 3145,
    "store_type": "",
    "operational_date": "2003-01-01",
    "address": "",
    "postcode_id": 1,
    "latitude": 0,
    "longitude": 0,
    "phone": 0
  },
  {
    "outlet_sap_id": "BS1201",
    "name": "KLINIK - KF.Nganjuk",
    "department_id": 3145,
    "store_type": "",
    "operational_date": "2015-12-12",
    "address": "",
    "postcode_id": 1,
    "latitude": 0,
    "longitude": 0,
    "phone": 0
  },
  {
    "outlet_sap_id": "BS1301",
    "name": "Klinik KF Mojosari",
    "department_id": 3145,
    "store_type": "",
    "operational_date": "1010-01-01",
    "address": "",
    "postcode_id": 1,
    "latitude": 0,
    "longitude": 0,
    "phone": 0
  },
  {
    "outlet_sap_id": "BS2301",
    "name": "Klinik KF Citra Medika",
    "department_id": 3145,
    "store_type": "",
    "operational_date": "1010-01-01",
    "address": "",
    "postcode_id": 1,
    "latitude": 0,
    "longitude": 0,
    "phone": 0
  },
  {
    "outlet_sap_id": 3145,
    "name": "UNIT BISNIS SIDOARJO",
    "department_id": 3145,
    "store_type": "NONE",
    "operational_date": "1010-01-01",
    "address": "",
    "postcode_id": 1,
    "latitude": 0,
    "longitude": 0,
    "phone": 0
  },
  {
    "outlet_sap_id": "BS28",
    "name": "KF Basuni Mojokerto",
    "department_id": 3145,
    "store_type": "",
    "operational_date": "2021-02-10",
    "address": "",
    "postcode_id": 1,
    "latitude": 0,
    "longitude": 0,
    "phone": 0
  },
  {
    "outlet_sap_id": "CR06",
    "name": "KF Akasia",
    "department_id": 3170,
    "store_type": "",
    "operational_date": "2024-01-05",
    "address": "",
    "postcode_id": 1,
    "latitude": 0,
    "longitude": 0,
    "phone": 0
  },
  {
    "outlet_sap_id": "CR02",
    "name": "KF 0206",
    "department_id": 3170,
    "store_type": "",
    "operational_date": "2024-01-01",
    "address": "",
    "postcode_id": 1,
    "latitude": 0,
    "longitude": 0,
    "phone": 0
  },
  {
    "outlet_sap_id": "CR01",
    "name": "KF.0089",
    "department_id": 3170,
    "store_type": "",
    "operational_date": "2024-01-05",
    "address": "",
    "postcode_id": 1,
    "latitude": 0,
    "longitude": 0,
    "phone": 0
  },
  {
    "outlet_sap_id": "CR05",
    "name": "KF PBLG",
    "department_id": 3170,
    "store_type": "",
    "operational_date": "2024-01-05",
    "address": "",
    "postcode_id": 1,
    "latitude": 0,
    "longitude": 0,
    "phone": 0
  },
  {
    "outlet_sap_id": 3170,
    "name": "Unit Bisnis Purwokerto",
    "department_id": 3170,
    "store_type": "",
    "operational_date": "1010-01-01",
    "address": "",
    "postcode_id": 1,
    "latitude": 0,
    "longitude": 0,
    "phone": 0
  },
  {
    "outlet_sap_id": "CR04",
    "name": "KF 0133 Purwokerto",
    "department_id": 3170,
    "store_type": "",
    "operational_date": "2024-01-05",
    "address": "",
    "postcode_id": 1,
    "latitude": 0,
    "longitude": 0,
    "phone": 0
  },
  {
    "outlet_sap_id": "CR03",
    "name": "KF 0437 Fajar",
    "department_id": 3170,
    "store_type": "",
    "operational_date": "2024-01-05",
    "address": "",
    "postcode_id": 1,
    "latitude": 0,
    "longitude": 0,
    "phone": 0
  }
]
